{"1:14D:0:04":{"id":"1:14D:0:04","desc":"14D to SS80 dir. P.CASE Cese Preturo fro. paese (1:I00250) from SS80 dir. P.CASE Cese Preturo fro. paese (1:I00250) via SS80 dir Via Amiternina l. Via Peschiera (1:I00390)","routeId":"1:14D","routeName":"14D","trip_route":["14D"],"trips_list":[],"busStopStart":"SS80 dir. P.CASE Cese Preturo fro. paese","busStopStartId":"1:I00250","busStopEnd":"SS80 dir. P.CASE Cese Preturo fro. paese","busStopEndId":"1:I00250","stops":[{"id":"1:I00250","name":"SS80 dir. P.CASE Cese Preturo fro. paese","lat":42.37193,"lon":13.2929},{"id":"1:I01370","name":"SS80 dir. lato Via De Filippo P.CASE","lat":42.37361,"lon":13.2938},{"id":"1:I00230","name":"SS80 dir Via Amiternina f. Via Sant'Anna","lat":42.37536,"lon":13.29455},{"id":"1:I00210","name":"SS80 dir. Via Amiternina lato Via Aringo","lat":42.37798,"lon":13.29631},{"id":"1:I00390","name":"SS80 dir Via Amiternina l. Via Peschiera","lat":42.38046,"lon":13.2976},{"id":"1:I00410","name":"Via Preturo MAP fronte Cimitero","lat":42.38252,"lon":13.29765},{"id":"1:I00440","name":"Via Preturo lato Sdrucciolo degli Orti","lat":42.38628,"lon":13.29508},{"id":"1:I00460","name":"Via Preturo lato Via Santa Marinella","lat":42.38825,"lon":13.29373},{"id":"1:I01260","name":"New Campus Colle di Preturo","lat":42.39046,"lon":13.29253},{"id":"1:I00450","name":"Via Preturo fronte Via Santa Marinella","lat":42.38843,"lon":13.29358},{"id":"1:I00430","name":"Via Preturo fronte Sdrucciolo degli Orti","lat":42.38595,"lon":13.2952},{"id":"1:I00420","name":"Via Preturo MAP lato Cimitero","lat":42.38303,"lon":13.29723},{"id":"1:I00380","name":"SS80 dir Via Amiternina f. Via Peschiera","lat":42.3799,"lon":13.29726},{"id":"1:I00190","name":"Via dell'Aringo Preturo fronte scuole","lat":42.37721,"lon":13.29826},{"id":"1:I00170","name":"Via dell'Aringo Preturo fronte Aeroporto","lat":42.37593,"lon":13.30133},{"id":"1:I00160","name":"Via di Preturo fronte il Cervo Bianco","lat":42.37063,"lon":13.31401},{"id":"1:I01240","name":"Progetto CASE Coppito 3 lato via Morante","lat":42.3695,"lon":13.32073},{"id":"1:I01250","name":"Progetto CASE Coppito 3 lato Via Calvino","lat":42.37025,"lon":13.3183},{"id":"1:I01230","name":"Via di Preturo Coppito fronte Coppito 3","lat":42.36832,"lon":13.32041},{"id":"1:I00140","name":"Via di Preturo Coppito fronte palestra","lat":42.36815,"lon":13.32748},{"id":"1:I00110","name":"Via di Preturo Coppito fro Casa Studente","lat":42.36793,"lon":13.33148},{"id":"1:I00090","name":"Via Ciavola Coppito lato murata Gigotti","lat":42.368131,"lon":13.33961},{"id":"1:I00080","name":"Piazza Rustici Coppito lato bar","lat":42.366951,"lon":13.34333},{"id":"1:D00640","name":"Via Borsellino front Via sotto la Chiesa","lat":42.366451,"lon":13.34595},{"id":"1:D00650","name":"Via Vetoio lato via Morgagni","lat":42.367461,"lon":13.3473},{"id":"1:D00670","name":"Via Vetoio Universita lato Ospedale","lat":42.367601,"lon":13.35201},{"id":"1:D00740","name":"SS80 fronte Agora lato Via D'Ascanio","lat":42.370581,"lon":13.35555},{"id":"1:D00720","name":"Via Borsellino fronte Vigili del Fuoco","lat":42.371921,"lon":13.34768},{"id":"1:D00700","name":"Via Borsellino fronte centro sportivo","lat":42.369531,"lon":13.34638},{"id":"1:D00630","name":"Via Borsellino lato Via sotto la Chiesa","lat":42.366311,"lon":13.34577},{"id":"1:D00580","name":"Via Falcone lato Via delle Svolte SP33","lat":42.364581,"lon":13.34735},{"id":"1:D00570","name":"Via Falcone fermata lato Ovest SP33","lat":42.362561,"lon":13.35073},{"id":"1:D00550","name":"Via Falcone lato Reiss Romoli SP33","lat":42.360361,"lon":13.35171},{"id":"1:H01140","name":"SS17 Deposito Ama Spa fronte Ama","lat":42.358481,"lon":13.35131},{"id":"1:D00140","name":"Via Campo di Pile Optimes","lat":42.35205,"lon":13.34895},{"id":"1:D00100","name":"L'AQUILONE - CENTRO COMMERCIALE","lat":42.349659,"lon":13.347646},{"id":"1:D00110","name":"Via Saragat lato centro c.le L'Aquilone","lat":42.349451,"lon":13.35116},{"id":"1:D00130","name":"GLOBO CENTER-CENTRO COMMERCIALE","lat":42.34926,"lon":13.35486},{"id":"1:D00120","name":"Via Saragat front centro c.le L'Aquilone","lat":42.349631,"lon":13.35074},{"id":"1:D00150","name":"Via Campo di Pile Confindustria","lat":42.35253,"lon":13.34921},{"id":"1:H01120","name":"SS 17 bv. Pontepeschio fermata lato Nord","lat":42.356211,"lon":13.34148},{"id":"1:H01190","name":"SS17 C.da Carducci fermata lato Nord","lat":42.360911,"lon":13.33225},{"id":"1:H01220","name":"SS17 C.da Cirella fermata lato Nord","lat":42.36414,"lon":13.31289},{"id":"1:H01545","name":"Via Bruno D'Inzillo SASSA NSI l.Palestra","lat":42.36494,"lon":13.3102},{"id":"1:H01540","name":"Via Bruno D'Inzillo P.CASE SASSA NSI 1.","lat":42.36531,"lon":13.31425},{"id":"1:H01440","name":"Via Bruno D'Inzillo P.CASE SASSA NSI 2.","lat":42.36588,"lon":13.31833},{"id":"1:H01450","name":"Via Bruno D'Inzillo P.CASE SASSA NSI 3.","lat":42.36533,"lon":13.31608},{"id":"1:H01550","name":"Via Bruno D'Inzillo P.CASE SASSA NSI 4.","lat":42.36552,"lon":13.31378},{"id":"1:H01460","name":"Via Giuseppe Scarlattei 1. fermata","lat":42.36445,"lon":13.30668},{"id":"1:H01465","name":"Via Giuseppe Scarlattei 2. fermata","lat":42.36372,"lon":13.30237},{"id":"1:H01250","name":"SS17 Sassa Scalo lato bivio Preturo","lat":42.36162,"lon":13.29868},{"id":"1:H01560","name":"SS17 fronte Stazione Fs Sassa Scalo","lat":42.3612,"lon":13.29601},{"id":"1:H01270","name":"SS17 Sassa Scalo Irti lato Nord","lat":42.36049,"lon":13.29206},{"id":"1:H01290","name":"SS17 Via Roma Sassa Scalo lato Bowling","lat":42.35996,"lon":13.2889},{"id":"1:I01400","name":"SS80 dir. lato Coop","lat":42.36099,"lon":13.28749},{"id":"1:I00360","name":"SS80 dir. lato Carcere Costarelle","lat":42.36536,"lon":13.28961},{"id":"1:I00250","name":"SS80 dir. P.CASE Cese Preturo fro. paese","lat":42.37193,"lon":13.2929}],"trips":[{"id":"1:4228","tripHeadsign":"SS80 dir. P.CASE Cese Preturo fro. paese","serviceId":"1:0ANNLUSA2016010120991231","shapeId":"ZZZ14D00010","direction":0,"departureStop":{"stopId":"1:I00250","stopName":"SS80 dir. P.CASE Cese Preturo fro. paese","stopIndex":0,"stopCount":57,"scheduledArrival":30600,"scheduledDeparture":30600,"realtimeArrival":30600,"realtimeDeparture":30600,"arrivalDelay":0,"departureDelay":0,"timepoint":true,"realtime":false,"realtimeState":"SCHEDULED","serviceDay":0,"headsign":"SS80 dir. P.CASE Cese Preturo fro. paese","continuousPickup":-999,"continuousDropOff":-999,"serviceAreaRadius":0},"arrivalStop":{"stopId":"1:I00250","stopName":"SS80 dir. P.CASE Cese Preturo fro. paese","stopIndex":56,"stopCount":57,"scheduledArrival":34200,"scheduledDeparture":34200,"realtimeArrival":34200,"realtimeDeparture":34200,"arrivalDelay":0,"departureDelay":0,"timepoint":true,"realtime":false,"realtimeState":"SCHEDULED","serviceDay":0,"headsign":"SS80 dir. P.CASE Cese Preturo fro. paese","continuousPickup":-999,"continuousDropOff":-999,"serviceAreaRadius":0},"tripShortName":"14D"},{"id":"1:4229","tripHeadsign":"SS80 dir. P.CASE Cese Preturo fro. paese","serviceId":"1:0ANNLUSA2016010120991231","shapeId":"ZZZ14D00010","direction":0,"departureStop":{"stopId":"1:I00250","stopName":"SS80 dir. P.CASE Cese Preturo fro. paese","stopIndex":0,"stopCount":57,"scheduledArrival":34200,"scheduledDeparture":34200,"realtimeArrival":34200,"realtimeDeparture":34200,"arrivalDelay":0,"departureDelay":0,"timepoint":true,"realtime":false,"realtimeState":"SCHEDULED","serviceDay":0,"headsign":"SS80 dir. P.CASE Cese Preturo fro. paese","continuousPickup":-999,"continuousDropOff":-999,"serviceAreaRadius":0},"arrivalStop":{"stopId":"1:I00250","stopName":"SS80 dir. P.CASE Cese Preturo fro. paese","stopIndex":56,"stopCount":57,"scheduledArrival":37800,"scheduledDeparture":37800,"realtimeArrival":37800,"realtimeDeparture":37800,"arrivalDelay":0,"departureDelay":0,"timepoint":true,"realtime":false,"realtimeState":"SCHEDULED","serviceDay":0,"headsign":"SS80 dir. P.CASE Cese Preturo fro. paese","continuousPickup":-999,"continuousDropOff":-999,"serviceAreaRadius":0},"tripShortName":"14D"},{"id":"1:4237","tripHeadsign":"SS80 dir. P.CASE Cese Preturo fro. paese","serviceId":"1:0ANNLUSA2016010120991231","shapeId":"ZZZ14D00010","direction":0,"departureStop":{"stopId":"1:I00250","stopName":"SS80 dir. P.CASE Cese Preturo fro. paese","stopIndex":0,"stopCount":57,"scheduledArrival":63000,"scheduledDeparture":63000,"realtimeArrival":63000,"realtimeDeparture":63000,"arrivalDelay":0,"departureDelay":0,"timepoint":true,"realtime":false,"realtimeState":"SCHEDULED","serviceDay":0,"headsign":"SS80 dir. P.CASE Cese Preturo fro. paese","continuousPickup":-999,"continuousDropOff":-999,"serviceAreaRadius":0},"arrivalStop":{"stopId":"1:I00250","stopName":"SS80 dir. P.CASE Cese Preturo fro. paese","stopIndex":56,"stopCount":57,"scheduledArrival":66600,"scheduledDeparture":66600,"realtimeArrival":66600,"realtimeDeparture":66600,"arrivalDelay":0,"departureDelay":0,"timepoint":true,"realtime":false,"realtimeState":"SCHEDULED","serviceDay":0,"headsign":"SS80 dir. P.CASE Cese Preturo fro. paese","continuousPickup":-999,"continuousDropOff":-999,"serviceAreaRadius":0},"tripShortName":"14D"},{"id":"1:4238","tripHeadsign":"SS80 dir. P.CASE Cese Preturo fro. paese","serviceId":"1:0ANNLUSA2016010120991231","shapeId":"ZZZ14D00010","direction":0,"departureStop":{"stopId":"1:I00250","stopName":"SS80 dir. P.CASE Cese Preturo fro. paese","stopIndex":0,"stopCount":57,"scheduledArrival":66600,"scheduledDeparture":66600,"realtimeArrival":66600,"realtimeDeparture":66600,"arrivalDelay":0,"departureDelay":0,"timepoint":true,"realtime":false,"realtimeState":"SCHEDULED","serviceDay":0,"headsign":"SS80 dir. P.CASE Cese Preturo fro. paese","continuousPickup":-999,"continuousDropOff":-999,"serviceAreaRadius":0},"arrivalStop":{"stopId":"1:I00250","stopName":"SS80 dir. P.CASE Cese Preturo fro. paese","stopIndex":56,"stopCount":57,"scheduledArrival":70200,"scheduledDeparture":70200,"realtimeArrival":70200,"realtimeDeparture":70200,"arrivalDelay":0,"departureDelay":0,"timepoint":true,"realtime":false,"realtimeState":"SCHEDULED","serviceDay":0,"headsign":"SS80 dir. P.CASE Cese Preturo fro. paese","continuousPickup":-999,"continuousDropOff":-999,"serviceAreaRadius":0},"tripShortName":"14D"},{"id":"1:4239","tripHeadsign":"SS80 dir. P.CASE Cese Preturo fro. paese","serviceId":"1:0ANNLUSA2016010120991231","shapeId":"ZZZ14D00010","direction":0,"departureStop":{"stopId":"1:I00250","stopName":"SS80 dir. P.CASE Cese Preturo fro. paese","stopIndex":0,"stopCount":57,"scheduledArrival":70200,"scheduledDeparture":70200,"realtimeArrival":70200,"realtimeDeparture":70200,"arrivalDelay":0,"departureDelay":0,"timepoint":true,"realtime":false,"realtimeState":"SCHEDULED","serviceDay":0,"headsign":"SS80 dir. P.CASE Cese Preturo fro. paese","continuousPickup":-999,"continuousDropOff":-999,"serviceAreaRadius":0},"arrivalStop":{"stopId":"1:I00250","stopName":"SS80 dir. P.CASE Cese Preturo fro. paese","stopIndex":56,"stopCount":57,"scheduledArrival":73800,"scheduledDeparture":73800,"realtimeArrival":73800,"realtimeDeparture":73800,"arrivalDelay":0,"departureDelay":0,"timepoint":true,"realtime":false,"realtimeState":"SCHEDULED","serviceDay":0,"headsign":"SS80 dir. P.CASE Cese Preturo fro. paese","continuousPickup":-999,"continuousDropOff":-999,"serviceAreaRadius":0},"tripShortName":"14D"},{"id":"1:4230","tripHeadsign":"SS80 dir. P.CASE Cese Preturo fro. paese","serviceId":"1:0ANNLUSA2016010120991231","shapeId":"ZZZ14D00010","direction":0,"departureStop":{"stopId":"1:I00250","stopName":"SS80 dir. P.CASE Cese Preturo fro. paese","stopIndex":0,"stopCount":57,"scheduledArrival":37800,"scheduledDeparture":37800,"realtimeArrival":37800,"realtimeDeparture":37800,"arrivalDelay":0,"departureDelay":0,"timepoint":true,"realtime":false,"realtimeState":"SCHEDULED","serviceDay":0,"headsign":"SS80 dir. P.CASE Cese Preturo fro. paese","continuousPickup":-999,"continuousDropOff":-999,"serviceAreaRadius":0},"arrivalStop":{"stopId":"1:I00250","stopName":"SS80 dir. P.CASE Cese Preturo fro. paese","stopIndex":56,"stopCount":57,"scheduledArrival":41400,"scheduledDeparture":41400,"realtimeArrival":41400,"realtimeDeparture":41400,"arrivalDelay":0,"departureDelay":0,"timepoint":true,"realtime":false,"realtimeState":"SCHEDULED","serviceDay":0,"headsign":"SS80 dir. P.CASE Cese Preturo fro. paese","continuousPickup":-999,"continuousDropOff":-999,"serviceAreaRadius":0},"tripShortName":"14D"},{"id":"1:4231","tripHeadsign":"SS80 dir. P.CASE Cese Preturo fro. paese","serviceId":"1:0ANNLUSA2016010120991231","shapeId":"ZZZ14D00010","direction":0,"departureStop":{"stopId":"1:I00250","stopName":"SS80 dir. P.CASE Cese Preturo fro. paese","stopIndex":0,"stopCount":57,"scheduledArrival":41400,"scheduledDeparture":41400,"realtimeArrival":41400,"realtimeDeparture":41400,"arrivalDelay":0,"departureDelay":0,"timepoint":true,"realtime":false,"realtimeState":"SCHEDULED","serviceDay":0,"headsign":"SS80 dir. P.CASE Cese Preturo fro. paese","continuousPickup":-999,"continuousDropOff":-999,"serviceAreaRadius":0},"arrivalStop":{"stopId":"1:I00250","stopName":"SS80 dir. P.CASE Cese Preturo fro. paese","stopIndex":56,"stopCount":57,"scheduledArrival":45000,"scheduledDeparture":45000,"realtimeArrival":45000,"realtimeDeparture":45000,"arrivalDelay":0,"departureDelay":0,"timepoint":true,"realtime":false,"realtimeState":"SCHEDULED","serviceDay":0,"headsign":"SS80 dir. P.CASE Cese Preturo fro. paese","continuousPickup":-999,"continuousDropOff":-999,"serviceAreaRadius":0},"tripShortName":"14D"},{"id":"1:4232","tripHeadsign":"SS80 dir. P.CASE Cese Preturo fro. paese","serviceId":"1:0ANNLUSA2016010120991231","shapeId":"ZZZ14D00010","direction":0,"departureStop":{"stopId":"1:I00250","stopName":"SS80 dir. P.CASE Cese Preturo fro. paese","stopIndex":0,"stopCount":57,"scheduledArrival":45000,"scheduledDeparture":45000,"realtimeArrival":45000,"realtimeDeparture":45000,"arrivalDelay":0,"departureDelay":0,"timepoint":true,"realtime":false,"realtimeState":"SCHEDULED","serviceDay":0,"headsign":"SS80 dir. P.CASE Cese Preturo fro. paese","continuousPickup":-999,"continuousDropOff":-999,"serviceAreaRadius":0},"arrivalStop":{"stopId":"1:I00250","stopName":"SS80 dir. P.CASE Cese Preturo fro. paese","stopIndex":56,"stopCount":57,"scheduledArrival":48600,"scheduledDeparture":48600,"realtimeArrival":48600,"realtimeDeparture":48600,"arrivalDelay":0,"departureDelay":0,"timepoint":true,"realtime":false,"realtimeState":"SCHEDULED","serviceDay":0,"headsign":"SS80 dir. P.CASE Cese Preturo fro. paese","continuousPickup":-999,"continuousDropOff":-999,"serviceAreaRadius":0},"tripShortName":"14D"},{"id":"1:4233","tripHeadsign":"SS80 dir. P.CASE Cese Preturo fro. paese","serviceId":"1:0ANNLUSA2016010120991231","shapeId":"ZZZ14D00010","direction":0,"departureStop":{"stopId":"1:I00250","stopName":"SS80 dir. P.CASE Cese Preturo fro. paese","stopIndex":0,"stopCount":57,"scheduledArrival":48600,"scheduledDeparture":48600,"realtimeArrival":48600,"realtimeDeparture":48600,"arrivalDelay":0,"departureDelay":0,"timepoint":true,"realtime":false,"realtimeState":"SCHEDULED","serviceDay":0,"headsign":"SS80 dir. P.CASE Cese Preturo fro. paese","continuousPickup":-999,"continuousDropOff":-999,"serviceAreaRadius":0},"arrivalStop":{"stopId":"1:I00250","stopName":"SS80 dir. P.CASE Cese Preturo fro. paese","stopIndex":56,"stopCount":57,"scheduledArrival":52200,"scheduledDeparture":52200,"realtimeArrival":52200,"realtimeDeparture":52200,"arrivalDelay":0,"departureDelay":0,"timepoint":true,"realtime":false,"realtimeState":"SCHEDULED","serviceDay":0,"headsign":"SS80 dir. P.CASE Cese Preturo fro. paese","continuousPickup":-999,"continuousDropOff":-999,"serviceAreaRadius":0},"tripShortName":"14D"},{"id":"1:4234","tripHeadsign":"SS80 dir. P.CASE Cese Preturo fro. paese","serviceId":"1:0ANNLUSA2016010120991231","shapeId":"ZZZ14D00010","direction":0,"departureStop":{"stopId":"1:I00250","stopName":"SS80 dir. P.CASE Cese Preturo fro. paese","stopIndex":0,"stopCount":57,"scheduledArrival":52200,"scheduledDeparture":52200,"realtimeArrival":52200,"realtimeDeparture":52200,"arrivalDelay":0,"departureDelay":0,"timepoint":true,"realtime":false,"realtimeState":"SCHEDULED","serviceDay":0,"headsign":"SS80 dir. P.CASE Cese Preturo fro. paese","continuousPickup":-999,"continuousDropOff":-999,"serviceAreaRadius":0},"arrivalStop":{"stopId":"1:I00250","stopName":"SS80 dir. P.CASE Cese Preturo fro. paese","stopIndex":56,"stopCount":57,"scheduledArrival":55800,"scheduledDeparture":55800,"realtimeArrival":55800,"realtimeDeparture":55800,"arrivalDelay":0,"departureDelay":0,"timepoint":true,"realtime":false,"realtimeState":"SCHEDULED","serviceDay":0,"headsign":"SS80 dir. P.CASE Cese Preturo fro. paese","continuousPickup":-999,"continuousDropOff":-999,"serviceAreaRadius":0},"tripShortName":"14D"},{"id":"1:4235","tripHeadsign":"SS80 dir. P.CASE Cese Preturo fro. paese","serviceId":"1:0ANNLUSA2016010120991231","shapeId":"ZZZ14D00010","direction":0,"departureStop":{"stopId":"1:I00250","stopName":"SS80 dir. P.CASE Cese Preturo fro. paese","stopIndex":0,"stopCount":57,"scheduledArrival":55800,"scheduledDeparture":55800,"realtimeArrival":55800,"realtimeDeparture":55800,"arrivalDelay":0,"departureDelay":0,"timepoint":true,"realtime":false,"realtimeState":"SCHEDULED","serviceDay":0,"headsign":"SS80 dir. P.CASE Cese Preturo fro. paese","continuousPickup":-999,"continuousDropOff":-999,"serviceAreaRadius":0},"arrivalStop":{"stopId":"1:I00250","stopName":"SS80 dir. P.CASE Cese Preturo fro. paese","stopIndex":56,"stopCount":57,"scheduledArrival":59400,"scheduledDeparture":59400,"realtimeArrival":59400,"realtimeDeparture":59400,"arrivalDelay":0,"departureDelay":0,"timepoint":true,"realtime":false,"realtimeState":"SCHEDULED","serviceDay":0,"headsign":"SS80 dir. P.CASE Cese Preturo fro. paese","continuousPickup":-999,"continuousDropOff":-999,"serviceAreaRadius":0},"tripShortName":"14D"},{"id":"1:4236","tripHeadsign":"SS80 dir. P.CASE Cese Preturo fro. paese","serviceId":"1:0ANNLUSA2016010120991231","shapeId":"ZZZ14D00010","direction":0,"departureStop":{"stopId":"1:I00250","stopName":"SS80 dir. P.CASE Cese Preturo fro. paese","stopIndex":0,"stopCount":57,"scheduledArrival":59400,"scheduledDeparture":59400,"realtimeArrival":59400,"realtimeDeparture":59400,"arrivalDelay":0,"departureDelay":0,"timepoint":true,"realtime":false,"realtimeState":"SCHEDULED","serviceDay":0,"headsign":"SS80 dir. P.CASE Cese Preturo fro. paese","continuousPickup":-999,"continuousDropOff":-999,"serviceAreaRadius":0},"arrivalStop":{"stopId":"1:I00250","stopName":"SS80 dir. P.CASE Cese Preturo fro. paese","stopIndex":56,"stopCount":57,"scheduledArrival":63000,"scheduledDeparture":63000,"realtimeArrival":63000,"realtimeDeparture":63000,"arrivalDelay":0,"departureDelay":0,"timepoint":true,"realtime":false,"realtimeState":"SCHEDULED","serviceDay":0,"headsign":"SS80 dir. P.CASE Cese Preturo fro. paese","continuousPickup":-999,"continuousDropOff":-999,"serviceAreaRadius":0},"tripShortName":"14D"}]},"1:14D:0:02":{"id":"1:14D:0:02","desc":"14D to SS17 Deposito Ama Spa fronte Ama (1:H01140)","routeId":"1:14D","routeName":"14D","trip_route":["14D"],"trips_list":[],"busStopStart":"SS80 dir. P.CASE Cese Preturo fro. paese","busStopStartId":"1:I00250","busStopEnd":"SS17 Deposito Ama Spa fronte Ama","busStopEndId":"1:H01140","stops":[{"id":"1:I00250","name":"SS80 dir. P.CASE Cese Preturo fro. paese","lat":42.37193,"lon":13.2929},{"id":"1:I01370","name":"SS80 dir. lato Via De Filippo P.CASE","lat":42.37361,"lon":13.2938},{"id":"1:I00230","name":"SS80 dir Via Amiternina f. Via Sant'Anna","lat":42.37536,"lon":13.29455},{"id":"1:I00210","name":"SS80 dir. Via Amiternina lato Via Aringo","lat":42.37798,"lon":13.29631},{"id":"1:I00390","name":"SS80 dir Via Amiternina l. Via Peschiera","lat":42.38046,"lon":13.2976},{"id":"1:I00410","name":"Via Preturo MAP fronte Cimitero","lat":42.38252,"lon":13.29765},{"id":"1:I00440","name":"Via Preturo lato Sdrucciolo degli Orti","lat":42.38628,"lon":13.29508},{"id":"1:I00460","name":"Via Preturo lato Via Santa Marinella","lat":42.38825,"lon":13.29373},{"id":"1:I01260","name":"New Campus Colle di Preturo","lat":42.39046,"lon":13.29253},{"id":"1:I00450","name":"Via Preturo fronte Via Santa Marinella","lat":42.38843,"lon":13.29358},{"id":"1:I00430","name":"Via Preturo fronte Sdrucciolo degli Orti","lat":42.38595,"lon":13.2952},{"id":"1:I00420","name":"Via Preturo MAP lato Cimitero","lat":42.38303,"lon":13.29723},{"id":"1:I00380","name":"SS80 dir Via Amiternina f. Via Peschiera","lat":42.3799,"lon":13.29726},{"id":"1:I00190","name":"Via dell'Aringo Preturo fronte scuole","lat":42.37721,"lon":13.29826},{"id":"1:I00170","name":"Via dell'Aringo Preturo fronte Aeroporto","lat":42.37593,"lon":13.30133},{"id":"1:I00160","name":"Via di Preturo fronte il Cervo Bianco","lat":42.37063,"lon":13.31401},{"id":"1:I01240","name":"Progetto CASE Coppito 3 lato via Morante","lat":42.3695,"lon":13.32073},{"id":"1:I01250","name":"Progetto CASE Coppito 3 lato Via Calvino","lat":42.37025,"lon":13.3183},{"id":"1:I01230","name":"Via di Preturo Coppito fronte Coppito 3","lat":42.36832,"lon":13.32041},{"id":"1:I00140","name":"Via di Preturo Coppito fronte palestra","lat":42.36815,"lon":13.32748},{"id":"1:I00110","name":"Via di Preturo Coppito fro Casa Studente","lat":42.36793,"lon":13.33148},{"id":"1:I00090","name":"Via Ciavola Coppito lato murata Gigotti","lat":42.368131,"lon":13.33961},{"id":"1:I00080","name":"Piazza Rustici Coppito lato bar","lat":42.366951,"lon":13.34333},{"id":"1:D00640","name":"Via Borsellino front Via sotto la Chiesa","lat":42.366451,"lon":13.34595},{"id":"1:D00650","name":"Via Vetoio lato via Morgagni","lat":42.367461,"lon":13.3473},{"id":"1:D00670","name":"Via Vetoio Universita lato Ospedale","lat":42.367601,"lon":13.35201},{"id":"1:D00740","name":"SS80 fronte Agora lato Via D'Ascanio","lat":42.370581,"lon":13.35555},{"id":"1:D00720","name":"Via Borsellino fronte Vigili del Fuoco","lat":42.371921,"lon":13.34768},{"id":"1:D00700","name":"Via Borsellino fronte centro sportivo","lat":42.369531,"lon":13.34638},{"id":"1:D00630","name":"Via Borsellino lato Via sotto la Chiesa","lat":42.366311,"lon":13.34577},{"id":"1:D00580","name":"Via Falcone lato Via delle Svolte SP33","lat":42.364581,"lon":13.34735},{"id":"1:D00570","name":"Via Falcone fermata lato Ovest SP33","lat":42.362561,"lon":13.35073},{"id":"1:D00550","name":"Via Falcone lato Reiss Romoli SP33","lat":42.360361,"lon":13.35171},{"id":"1:H01140","name":"SS17 Deposito Ama Spa fronte Ama","lat":42.358481,"lon":13.35131}],"trips":[{"id":"1:4240","tripHeadsign":"SS17 Deposito Ama Spa fronte Ama","serviceId":"1:0ANNLUSA2016010120991231","shapeId":"ZZZ14D00040","direction":0,"departureStop":{"stopId":"1:I00250","stopName":"SS80 dir. P.CASE Cese Preturo fro. paese","stopIndex":0,"stopCount":34,"scheduledArrival":73800,"scheduledDeparture":73800,"realtimeArrival":73800,"realtimeDeparture":73800,"arrivalDelay":0,"departureDelay":0,"timepoint":true,"realtime":false,"realtimeState":"SCHEDULED","serviceDay":0,"headsign":"SS17 Deposito Ama Spa fronte Ama","continuousPickup":-999,"continuousDropOff":-999,"serviceAreaRadius":0},"arrivalStop":{"stopId":"1:H01140","stopName":"SS17 Deposito Ama Spa fronte Ama","stopIndex":33,"stopCount":34,"scheduledArrival":74940,"scheduledDeparture":74940,"realtimeArrival":74940,"realtimeDeparture":74940,"arrivalDelay":0,"departureDelay":0,"timepoint":true,"realtime":false,"realtimeState":"SCHEDULED","serviceDay":0,"headsign":"SS17 Deposito Ama Spa fronte Ama","continuousPickup":-999,"continuousDropOff":-999,"serviceAreaRadius":0},"tripShortName":"14D"},{"id":"1:4241","tripHeadsign":"SS17 Deposito Ama Spa fronte Ama","serviceId":"1:0ANNLUSA2016010120991231","shapeId":"ZZZ14D00040","direction":0,"departureStop":{"stopId":"1:I00250","stopName":"SS80 dir. P.CASE Cese Preturo fro. paese","stopIndex":0,"stopCount":34,"scheduledArrival":78780,"scheduledDeparture":78780,"realtimeArrival":78780,"realtimeDeparture":78780,"arrivalDelay":0,"departureDelay":0,"timepoint":true,"realtime":false,"realtimeState":"SCHEDULED","serviceDay":0,"headsign":"SS17 Deposito Ama Spa fronte Ama","continuousPickup":-999,"continuousDropOff":-999,"serviceAreaRadius":0},"arrivalStop":{"stopId":"1:H01140","stopName":"SS17 Deposito Ama Spa fronte Ama","stopIndex":33,"stopCount":34,"scheduledArrival":79740,"scheduledDeparture":79740,"realtimeArrival":79740,"realtimeDeparture":79740,"arrivalDelay":0,"departureDelay":0,"timepoint":true,"realtime":false,"realtimeState":"SCHEDULED","serviceDay":0,"headsign":"SS17 Deposito Ama Spa fronte Ama","continuousPickup":-999,"continuousDropOff":-999,"serviceAreaRadius":0},"tripShortName":"14D"}]},"1:14D:0:01":{"id":"1:14D:0:01","desc":"14D to SS80 dir. P.CASE Cese Preturo fro. paese (1:I00250) from SS80 dir. P.CASE Cese Preturo fro. paese (1:I00250) via Via Manzoni lato Via Madonna d. Grazie (1:E00890)","routeId":"1:14D","routeName":"14D","trip_route":["14D"],"trips_list":[],"busStopStart":"SS80 dir. P.CASE Cese Preturo fro. paese","busStopStartId":"1:I00250","busStopEnd":"SS80 dir. P.CASE Cese Preturo fro. paese","busStopEndId":"1:I00250","stops":[{"id":"1:I00250","name":"SS80 dir. P.CASE Cese Preturo fro. paese","lat":42.37193,"lon":13.2929},{"id":"1:I01370","name":"SS80 dir. lato Via De Filippo P.CASE","lat":42.37361,"lon":13.2938},{"id":"1:I00230","name":"SS80 dir Via Amiternina f. Via Sant'Anna","lat":42.37536,"lon":13.29455},{"id":"1:I00210","name":"SS80 dir. Via Amiternina lato Via Aringo","lat":42.37798,"lon":13.29631},{"id":"1:I00190","name":"Via dell'Aringo Preturo fronte scuole","lat":42.37721,"lon":13.29826},{"id":"1:I00170","name":"Via dell'Aringo Preturo fronte Aeroporto","lat":42.37593,"lon":13.30133},{"id":"1:I00160","name":"Via di Preturo fronte il Cervo Bianco","lat":42.37063,"lon":13.31401},{"id":"1:I01240","name":"Progetto CASE Coppito 3 lato via Morante","lat":42.3695,"lon":13.32073},{"id":"1:I01250","name":"Progetto CASE Coppito 3 lato Via Calvino","lat":42.37025,"lon":13.3183},{"id":"1:I01230","name":"Via di Preturo Coppito fronte Coppito 3","lat":42.36832,"lon":13.32041},{"id":"1:I00140","name":"Via di Preturo Coppito fronte palestra","lat":42.36815,"lon":13.32748},{"id":"1:I00110","name":"Via di Preturo Coppito fro Casa Studente","lat":42.36793,"lon":13.33148},{"id":"1:I00090","name":"Via Ciavola Coppito lato murata Gigotti","lat":42.368131,"lon":13.33961},{"id":"1:I00080","name":"Piazza Rustici Coppito lato bar","lat":42.366951,"lon":13.34333},{"id":"1:D00640","name":"Via Borsellino front Via sotto la Chiesa","lat":42.366451,"lon":13.34595},{"id":"1:D00650","name":"Via Vetoio lato via Morgagni","lat":42.367461,"lon":13.3473},{"id":"1:D00670","name":"Via Vetoio Universita lato Ospedale","lat":42.367601,"lon":13.35201},{"id":"1:E00890","name":"Via Manzoni lato Via Madonna d. Grazie","lat":42.369781,"lon":13.35881},{"id":"1:E00100","name":"Via A.Arischia fronte scuole medie","lat":42.371231,"lon":13.3638},{"id":"1:E00120","name":"Via A.Arischia lato chiesa","lat":42.370401,"lon":13.36695},{"id":"1:E00140","name":"Via A.Arischia lato v.Madonna di Pettino","lat":42.369401,"lon":13.37001},{"id":"1:E00930","name":"Via Madonna di Pettino fronte scuole","lat":42.368261,"lon":13.36948},{"id":"1:E00910","name":"Via Madonna di Pettino lato Via Pascoli","lat":42.366601,"lon":13.36751},{"id":"1:E00840","name":"Via L. Da Vinci A24 lato Via Carducci","lat":42.365501,"lon":13.36881},{"id":"1:E00810","name":"Via L. Da Vinci fronte cinema lat scuole","lat":42.366021,"lon":13.37206},{"id":"1:E00790","name":"Via L. Da Vinci lato Regione Abruzzo","lat":42.366201,"lon":13.37515},{"id":"1:E00970","name":"Via Carducci lato scuole","lat":42.364551,"lon":13.37111},{"id":"1:D00470","name":"Via dei Medici lato Via Ficara","lat":42.364439,"lon":13.364776},{"id":"1:D00465","name":"Via Ficara Scuole","lat":42.364683,"lon":13.363224},{"id":"1:D00475","name":"Via Ficara Piazza D'Arti","lat":42.365766,"lon":13.361086},{"id":"1:D00740","name":"SS80 fronte Agora lato Via D'Ascanio","lat":42.370581,"lon":13.35555},{"id":"1:D00720","name":"Via Borsellino fronte Vigili del Fuoco","lat":42.371921,"lon":13.34768},{"id":"1:D00700","name":"Via Borsellino fronte centro sportivo","lat":42.369531,"lon":13.34638},{"id":"1:D00650","name":"Via Vetoio lato via Morgagni","lat":42.367461,"lon":13.3473},{"id":"1:D00670","name":"Via Vetoio Universita lato Ospedale","lat":42.367601,"lon":13.35201},{"id":"1:D00740","name":"SS80 fronte Agora lato Via D'Ascanio","lat":42.370581,"lon":13.35555},{"id":"1:D00720","name":"Via Borsellino fronte Vigili del Fuoco","lat":42.371921,"lon":13.34768},{"id":"1:D00700","name":"Via Borsellino fronte centro sportivo","lat":42.369531,"lon":13.34638},{"id":"1:D00630","name":"Via Borsellino lato Via sotto la Chiesa","lat":42.366311,"lon":13.34577},{"id":"1:D00580","name":"Via Falcone lato Via delle Svolte SP33","lat":42.364581,"lon":13.34735},{"id":"1:D00570","name":"Via Falcone fermata lato Ovest SP33","lat":42.362561,"lon":13.35073},{"id":"1:D00550","name":"Via Falcone lato Reiss Romoli SP33","lat":42.360361,"lon":13.35171},{"id":"1:H01140","name":"SS17 Deposito Ama Spa fronte Ama","lat":42.358481,"lon":13.35131},{"id":"1:D00140","name":"Via Campo di Pile Optimes","lat":42.35205,"lon":13.34895},{"id":"1:D00100","name":"L'AQUILONE - CENTRO COMMERCIALE","lat":42.349659,"lon":13.347646},{"id":"1:D00110","name":"Via Saragat lato centro c.le L'Aquilone","lat":42.349451,"lon":13.35116},{"id":"1:D00130","name":"GLOBO CENTER-CENTRO COMMERCIALE","lat":42.34926,"lon":13.35486},{"id":"1:D00120","name":"Via Saragat front centro c.le L'Aquilone","lat":42.349631,"lon":13.35074},{"id":"1:D00150","name":"Via Campo di Pile Confindustria","lat":42.35253,"lon":13.34921},{"id":"1:H01120","name":"SS 17 bv. Pontepeschio fermata lato Nord","lat":42.356211,"lon":13.34148},{"id":"1:H01190","name":"SS17 C.da Carducci fermata lato Nord","lat":42.360911,"lon":13.33225},{"id":"1:H01220","name":"SS17 C.da Cirella fermata lato Nord","lat":42.36414,"lon":13.31289},{"id":"1:H01545","name":"Via Bruno D'Inzillo SASSA NSI l.Palestra","lat":42.36494,"lon":13.3102},{"id":"1:H01540","name":"Via Bruno D'Inzillo P.CASE SASSA NSI 1.","lat":42.36531,"lon":13.31425},{"id":"1:H01440","name":"Via Bruno D'Inzillo P.CASE SASSA NSI 2.","lat":42.36588,"lon":13.31833},{"id":"1:H01450","name":"Via Bruno D'Inzillo P.CASE SASSA NSI 3.","lat":42.36533,"lon":13.31608},{"id":"1:H01550","name":"Via Bruno D'Inzillo P.CASE SASSA NSI 4.","lat":42.36552,"lon":13.31378},{"id":"1:H01460","name":"Via Giuseppe Scarlattei 1. fermata","lat":42.36445,"lon":13.30668},{"id":"1:H01465","name":"Via Giuseppe Scarlattei 2. fermata","lat":42.36372,"lon":13.30237},{"id":"1:H01250","name":"SS17 Sassa Scalo lato bivio Preturo","lat":42.36162,"lon":13.29868},{"id":"1:H01560","name":"SS17 fronte Stazione Fs Sassa Scalo","lat":42.3612,"lon":13.29601},{"id":"1:H01270","name":"SS17 Sassa Scalo Irti lato Nord","lat":42.36049,"lon":13.29206},{"id":"1:H01290","name":"SS17 Via Roma Sassa Scalo lato Bowling","lat":42.35996,"lon":13.2889},{"id":"1:I01400","name":"SS80 dir. lato Coop","lat":42.36099,"lon":13.28749},{"id":"1:I00360","name":"SS80 dir. lato Carcere Costarelle","lat":42.36536,"lon":13.28961},{"id":"1:I00250","name":"SS80 dir. P.CASE Cese Preturo fro. paese","lat":42.37193,"lon":13.2929}],"trips":[{"id":"1:4244","tripHeadsign":"SS80 dir. P.CASE Cese Preturo fro. paese","serviceId":"1:0ANNLUSA2016010120991231","shapeId":"ZZZ14D00030","direction":0,"departureStop":{"stopId":"1:I00250","stopName":"SS80 dir. P.CASE Cese Preturo fro. paese","stopIndex":0,"stopCount":66,"scheduledArrival":27000,"scheduledDeparture":27000,"realtimeArrival":27000,"realtimeDeparture":27000,"arrivalDelay":0,"departureDelay":0,"timepoint":true,"realtime":false,"realtimeState":"SCHEDULED","serviceDay":0,"headsign":"SS80 dir. P.CASE Cese Preturo fro. paese","continuousPickup":-999,"continuousDropOff":-999,"serviceAreaRadius":0},"arrivalStop":{"stopId":"1:I00250","stopName":"SS80 dir. P.CASE Cese Preturo fro. paese","stopIndex":65,"stopCount":66,"scheduledArrival":30600,"scheduledDeparture":30600,"realtimeArrival":30600,"realtimeDeparture":30600,"arrivalDelay":0,"departureDelay":0,"timepoint":true,"realtime":false,"realtimeState":"SCHEDULED","serviceDay":0,"headsign":"SS80 dir. P.CASE Cese Preturo fro. paese","continuousPickup":-999,"continuousDropOff":-999,"serviceAreaRadius":0},"tripShortName":"14D"}]},"1:11:1:04":{"id":"1:11:1:04","desc":"11 to TERMINALBUS 0 ARRIVI BUS AMA (1:A00000) from SP35 SR615 Roio Colle lato piazza (1:R00400)","routeId":"1:11","routeName":"11","trip_route":["11"],"trips_list":[],"busStopStart":"SP35 SR615 Roio Colle lato piazza","busStopStartId":"1:R00400","busStopEnd":"TERMINALBUS 0 ARRIVI BUS AMA","busStopEndId":"1:A00000","stops":[{"id":"1:R00400","name":"SP35 SR615 Roio Colle lato piazza","lat":42.341581,"lon":13.34885},{"id":"1:R00380","name":"SP35 SR615 Roio Colle fronte Annunziata","lat":42.339211,"lon":13.35111},{"id":"1:R00360","name":"SP35 SR615 Roio Colle Fontanile l. Sud","lat":42.338801,"lon":13.35318},{"id":"1:R00340","name":"SP35 SR615 Roio Colle front Via La Torre","lat":42.338061,"lon":13.3568},{"id":"1:R00500","name":"SS615 Cava di Roio - la Foca - dir L'Aq","lat":42.342161,"lon":13.36501},{"id":"1:R00520","name":"SS615 C.da Perrotti - dir. L'Aquila","lat":42.347441,"lon":13.37244},{"id":"1:R00540","name":"SS615 C.da Bernardi - dir. L'Aquila","lat":42.349541,"lon":13.37706},{"id":"1:R00560","name":"SS615 C.da Piccoli - dir. L'Aquila","lat":42.348541,"lon":13.38048},{"id":"1:R00580","name":"SS615 base Via Mariana - dir. L'Aquila","lat":42.346581,"lon":13.38804},{"id":"1:C00110","name":"s.p.120 maus.incr. ss.615","lat":42.345891,"lon":13.38883},{"id":"1:C00115","name":"s.p.120 maus verso.ss.615 dir.pianola","lat":42.340669,"lon":13.390036},{"id":"1:C00090","name":"s.p.120 maus.malepasso","lat":42.332901,"lon":13.40096},{"id":"1:C00070","name":"SR615 lato Via Colleverde","lat":42.332651,"lon":13.40321},{"id":"1:C00050","name":"SR615 lato ristorante dir.Martini","lat":42.335681,"lon":13.40309},{"id":"1:C00030","name":"SR615 Via Ponte Rasarolo PL dir.Martini","lat":42.339091,"lon":13.39917},{"id":"1:C00010","name":"SS615 Via Ponte Rasarolo lato Martini","lat":42.340511,"lon":13.39935},{"id":"1:A00130","name":"V.le Crispi Porta Napoli lat XXIV Maggio","lat":42.342171,"lon":13.39539},{"id":"1:A00100","name":"Viale Crispi bivio via Piave","lat":42.344091,"lon":13.39644},{"id":"1:A00150","name":"V.le Collemaggio fronte Emiciclo Regione","lat":42.344031,"lon":13.3981},{"id":"1:A00170","name":"Viale Caldora lato Collemaggio","lat":42.344151,"lon":13.40211},{"id":"1:A00000","name":"TERMINALBUS 0 ARRIVI BUS AMA","lat":42.344621,"lon":13.40115}],"trips":[{"id":"1:4583","tripHeadsign":"TERMINALBUS 0 ARRIVI BUS AMA","serviceId":"1:0ANNLUSA2016010120991231","shapeId":"ZZZZ1100042","direction":1,"departureStop":{"stopId":"1:R00400","stopName":"SP35 SR615 Roio Colle lato piazza","stopIndex":0,"stopCount":21,"scheduledArrival":48300,"scheduledDeparture":48300,"realtimeArrival":48300,"realtimeDeparture":48300,"arrivalDelay":0,"departureDelay":0,"timepoint":true,"realtime":false,"realtimeState":"SCHEDULED","serviceDay":0,"headsign":"TERMINALBUS 0 ARRIVI BUS AMA","continuousPickup":-999,"continuousDropOff":-999,"serviceAreaRadius":0},"arrivalStop":{"stopId":"1:A00000","stopName":"TERMINALBUS 0 ARRIVI BUS AMA","stopIndex":20,"stopCount":21,"scheduledArrival":49500,"scheduledDeparture":49500,"realtimeArrival":49500,"realtimeDeparture":49500,"arrivalDelay":0,"departureDelay":0,"timepoint":true,"realtime":false,"realtimeState":"SCHEDULED","serviceDay":0,"headsign":"TERMINALBUS 0 ARRIVI BUS AMA","continuousPickup":-999,"continuousDropOff":-999,"serviceAreaRadius":0},"tripShortName":"11"}]},"1:12:0:01":{"id":"1:12:0:01","desc":"12 to Via Casavecchia Prata Lucoli lato civ3 (1:H00175) from Via Campo di Pile Optimes (1:D00140)","routeId":"1:12","routeName":"12","trip_route":["12"],"trips_list":[],"busStopStart":"Via Campo di Pile Optimes","busStopStartId":"1:D00140","busStopEnd":"Via Casavecchia Prata Lucoli lato civ3","busStopEndId":"1:H00175","stops":[{"id":"1:D00140","name":"Via Campo di Pile Optimes","lat":42.35205,"lon":13.34895},{"id":"1:D00080","name":"Via Saragat fronte IN'S","lat":42.350531,"lon":13.34733},{"id":"1:D00075","name":"Via Saragat fronte BPER","lat":42.351148,"lon":13.344464},{"id":"1:D00065","name":"Via Saragat fronte bar 20","lat":42.352811,"lon":13.33944},{"id":"1:H01420","name":"SS584 fiume Raio lato deposito legname","lat":42.355891,"lon":13.33298},{"id":"1:H01100","name":"SS584 fronte Via della Fontana Genzano","lat":42.35565,"lon":13.32738},{"id":"1:H01080","name":"ss. 584 agip genzano","lat":42.35392,"lon":13.32403},{"id":"1:H01470","name":"SS584 fronte abitazioni Genzano bv. Roio","lat":42.35265,"lon":13.32271},{"id":"1:H00105","name":"SS584 bv. Collefracido Sassa front paese","lat":42.322911,"lon":13.32265},{"id":"1:H00115","name":"Via fonte d. Piaggia fr.cv26 Casavecchia","lat":42.310931,"lon":13.3303},{"id":"1:H00135","name":"via delle Ville da Casavecchia Lucoli","lat":42.306051,"lon":13.32937},{"id":"1:H00150","name":"via Casavecchia bv.via ville Prata Lucol","lat":42.302521,"lon":13.3281},{"id":"1:H00175","name":"Via Casavecchia Prata Lucoli lato civ3","lat":42.295571,"lon":13.33051}],"trips":[{"id":"1:4774","tripHeadsign":"Via Casavecchia Prata Lucoli lato civ3","serviceId":"1:0ANNLUSA2016010120991231","shapeId":"ZZZZ1200031","direction":0,"departureStop":{"stopId":"1:D00140","stopName":"Via Campo di Pile Optimes","stopIndex":0,"stopCount":13,"scheduledArrival":23460,"scheduledDeparture":23460,"realtimeArrival":23460,"realtimeDeparture":23460,"arrivalDelay":0,"departureDelay":0,"timepoint":true,"realtime":false,"realtimeState":"SCHEDULED","serviceDay":0,"headsign":"Via Casavecchia Prata Lucoli lato civ3","continuousPickup":-999,"continuousDropOff":-999,"serviceAreaRadius":0},"arrivalStop":{"stopId":"1:H00175","stopName":"Via Casavecchia Prata Lucoli lato civ3","stopIndex":12,"stopCount":13,"scheduledArrival":24600,"scheduledDeparture":24600,"realtimeArrival":24600,"realtimeDeparture":24600,"arrivalDelay":0,"departureDelay":0,"timepoint":true,"realtime":false,"realtimeState":"SCHEDULED","serviceDay":0,"headsign":"Via Casavecchia Prata Lucoli lato civ3","continuousPickup":-999,"continuousDropOff":-999,"serviceAreaRadius":0},"tripShortName":"12"},{"id":"1:4775","tripHeadsign":"Via Casavecchia Prata Lucoli lato civ3","serviceId":"1:0ANNLUSA2016010120991231","shapeId":"ZZZZ1200031","direction":0,"departureStop":{"stopId":"1:D00140","stopName":"Via Campo di Pile Optimes","stopIndex":0,"stopCount":13,"scheduledArrival":25860,"scheduledDeparture":25860,"realtimeArrival":25860,"realtimeDeparture":25860,"arrivalDelay":0,"departureDelay":0,"timepoint":true,"realtime":false,"realtimeState":"SCHEDULED","serviceDay":0,"headsign":"Via Casavecchia Prata Lucoli lato civ3","continuousPickup":-999,"continuousDropOff":-999,"serviceAreaRadius":0},"arrivalStop":{"stopId":"1:H00175","stopName":"Via Casavecchia Prata Lucoli lato civ3","stopIndex":12,"stopCount":13,"scheduledArrival":27000,"scheduledDeparture":27000,"realtimeArrival":27000,"realtimeDeparture":27000,"arrivalDelay":0,"departureDelay":0,"timepoint":true,"realtime":false,"realtimeState":"SCHEDULED","serviceDay":0,"headsign":"Via Casavecchia Prata Lucoli lato civ3","continuousPickup":-999,"continuousDropOff":-999,"serviceAreaRadius":0},"tripShortName":"12"}]},"1:2:1:03":{"id":"1:2:1:03","desc":"2 to TERMINALBUS 0 ARRIVI BUS AMA (1:A00000) from SS17 Deposito Ama Spa lato Ama (1:H01150)","routeId":"1:2","routeName":"2","trip_route":["2"],"trips_list":[],"busStopStart":"SS17 Deposito Ama Spa lato Ama","busStopStartId":"1:H01150","busStopEnd":"TERMINALBUS 0 ARRIVI BUS AMA","busStopEndId":"1:A00000","stops":[{"id":"1:H01150","name":"SS17 Deposito Ama Spa lato Ama","lat":42.358461,"lon":13.35155},{"id":"1:D00525","name":"Centi Colella piazzale","lat":42.359343,"lon":13.359488},{"id":"1:D00510","name":"piazzale italtel AQ/2A","lat":42.357861,"lon":13.36463},{"id":"1:D00490","name":"SS17 Ovest lato Via del Mulino di Pile","lat":42.359211,"lon":13.36925},{"id":"1:D00390","name":"SS17 Ovest fronte ingresso A24","lat":42.359531,"lon":13.37155},{"id":"1:D00400","name":"SS17 fronte Hotel Amiternum","lat":42.360231,"lon":13.3763},{"id":"1:D00870","name":"Viale Corrado IV McDonald","lat":42.359161,"lon":13.38143},{"id":"1:D00950","name":"Viale Corrado IV Rotonda Piazza d'Armi","lat":42.356901,"lon":13.38633},{"id":"1:A00460","name":"Via XX Settembre lato Tribunale","lat":42.354361,"lon":13.38963},{"id":"1:A00470","name":"Via XX Settembre lato Villa Gioia","lat":42.352551,"lon":13.39041},{"id":"1:A00490","name":"Via XX Settembre Fontesecco lato Rivera","lat":42.350251,"lon":13.39221},{"id":"1:A00520","name":"Via XX Settembre incr. Via Sant'Andrea","lat":42.347133,"lon":13.394321},{"id":"1:A00540","name":"Via XX Settembre lato ple Pasquale Paoli","lat":42.346236,"lon":13.396585},{"id":"1:A00080","name":"Viale Crispi piazzale P. Paoli lato Gssi","lat":42.345325,"lon":13.397024},{"id":"1:A00150","name":"V.le Collemaggio fronte Emiciclo Regione","lat":42.344031,"lon":13.3981},{"id":"1:A00170","name":"Viale Caldora lato Collemaggio","lat":42.344151,"lon":13.40211},{"id":"1:A00000","name":"TERMINALBUS 0 ARRIVI BUS AMA","lat":42.344621,"lon":13.40115}],"trips":[{"id":"1:4798","tripHeadsign":"TERMINALBUS 0 ARRIVI BUS AMA","serviceId":"1:0ANNLUSA2016010120991231","shapeId":"ZZZZZ200062","direction":1,"departureStop":{"stopId":"1:H01150","stopName":"SS17 Deposito Ama Spa lato Ama","stopIndex":0,"stopCount":17,"scheduledArrival":21060,"scheduledDeparture":21060,"realtimeArrival":21060,"realtimeDeparture":21060,"arrivalDelay":0,"departureDelay":0,"timepoint":true,"realtime":false,"realtimeState":"SCHEDULED","serviceDay":0,"headsign":"TERMINALBUS 0 ARRIVI BUS AMA","continuousPickup":-999,"continuousDropOff":-999,"serviceAreaRadius":0},"arrivalStop":{"stopId":"1:A00000","stopName":"TERMINALBUS 0 ARRIVI BUS AMA","stopIndex":16,"stopCount":17,"scheduledArrival":21600,"scheduledDeparture":21600,"realtimeArrival":21600,"realtimeDeparture":21600,"arrivalDelay":0,"departureDelay":0,"timepoint":true,"realtime":false,"realtimeState":"SCHEDULED","serviceDay":0,"headsign":"TERMINALBUS 0 ARRIVI BUS AMA","continuousPickup":-999,"continuousDropOff":-999,"serviceAreaRadius":0},"tripShortName":"2"},{"id":"1:4449","tripHeadsign":"TERMINALBUS 0 ARRIVI BUS AMA","serviceId":"1:0ANNLUVE2016010120991231","shapeId":"ZZZZZ200062","direction":1,"departureStop":{"stopId":"1:H01150","stopName":"SS17 Deposito Ama Spa lato Ama","stopIndex":0,"stopCount":17,"scheduledArrival":23160,"scheduledDeparture":23160,"realtimeArrival":23160,"realtimeDeparture":23160,"arrivalDelay":0,"departureDelay":0,"timepoint":true,"realtime":false,"realtimeState":"SCHEDULED","serviceDay":0,"headsign":"TERMINALBUS 0 ARRIVI BUS AMA","continuousPickup":-999,"continuousDropOff":-999,"serviceAreaRadius":0},"arrivalStop":{"stopId":"1:A00000","stopName":"TERMINALBUS 0 ARRIVI BUS AMA","stopIndex":16,"stopCount":17,"scheduledArrival":24000,"scheduledDeparture":24000,"realtimeArrival":24000,"realtimeDeparture":24000,"arrivalDelay":0,"departureDelay":0,"timepoint":true,"realtime":false,"realtimeState":"SCHEDULED","serviceDay":0,"headsign":"TERMINALBUS 0 ARRIVI BUS AMA","continuousPickup":-999,"continuousDropOff":-999,"serviceAreaRadius":0},"tripShortName":"2"},{"id":"1:4450","tripHeadsign":"TERMINALBUS 0 ARRIVI BUS AMA","serviceId":"1:0ANNLUSA2016010120991231","shapeId":"ZZZZZ200062","direction":1,"departureStop":{"stopId":"1:H01150","stopName":"SS17 Deposito Ama Spa lato Ama","stopIndex":0,"stopCount":17,"scheduledArrival":26160,"scheduledDeparture":26160,"realtimeArrival":26160,"realtimeDeparture":26160,"arrivalDelay":0,"departureDelay":0,"timepoint":true,"realtime":false,"realtimeState":"SCHEDULED","serviceDay":0,"headsign":"TERMINALBUS 0 ARRIVI BUS AMA","continuousPickup":-999,"continuousDropOff":-999,"serviceAreaRadius":0},"arrivalStop":{"stopId":"1:A00000","stopName":"TERMINALBUS 0 ARRIVI BUS AMA","stopIndex":16,"stopCount":17,"scheduledArrival":27000,"scheduledDeparture":27000,"realtimeArrival":27000,"realtimeDeparture":27000,"arrivalDelay":0,"departureDelay":0,"timepoint":true,"realtime":false,"realtimeState":"SCHEDULED","serviceDay":0,"headsign":"TERMINALBUS 0 ARRIVI BUS AMA","continuousPickup":-999,"continuousDropOff":-999,"serviceAreaRadius":0},"tripShortName":"2"},{"id":"1:4451","tripHeadsign":"TERMINALBUS 0 ARRIVI BUS AMA","serviceId":"1:0ANNLUSA2016010120991231","shapeId":"ZZZZZ200062","direction":1,"departureStop":{"stopId":"1:H01150","stopName":"SS17 Deposito Ama Spa lato Ama","stopIndex":0,"stopCount":17,"scheduledArrival":26760,"scheduledDeparture":26760,"realtimeArrival":26760,"realtimeDeparture":26760,"arrivalDelay":0,"departureDelay":0,"timepoint":true,"realtime":false,"realtimeState":"SCHEDULED","serviceDay":0,"headsign":"TERMINALBUS 0 ARRIVI BUS AMA","continuousPickup":-999,"continuousDropOff":-999,"serviceAreaRadius":0},"arrivalStop":{"stopId":"1:A00000","stopName":"TERMINALBUS 0 ARRIVI BUS AMA","stopIndex":16,"stopCount":17,"scheduledArrival":27600,"scheduledDeparture":27600,"realtimeArrival":27600,"realtimeDeparture":27600,"arrivalDelay":0,"departureDelay":0,"timepoint":true,"realtime":false,"realtimeState":"SCHEDULED","serviceDay":0,"headsign":"TERMINALBUS 0 ARRIVI BUS AMA","continuousPickup":-999,"continuousDropOff":-999,"serviceAreaRadius":0},"tripShortName":"2"}]},"1:12:1:03":{"id":"1:12:1:03","desc":"12 to TERMINALBUS 0 ARRIVI BUS AMA (1:A00000) from SS17 Deposito Ama Spa lato Ama (1:H01150)","routeId":"1:12","routeName":"12","trip_route":["12"],"trips_list":[],"busStopStart":"SS17 Deposito Ama Spa lato Ama","busStopStartId":"1:H01150","busStopEnd":"TERMINALBUS 0 ARRIVI BUS AMA","busStopEndId":"1:A00000","stops":[{"id":"1:H01150","name":"SS17 Deposito Ama Spa lato Ama","lat":42.358461,"lon":13.35155},{"id":"1:D00525","name":"Centi Colella piazzale","lat":42.359343,"lon":13.359488},{"id":"1:D00510","name":"piazzale italtel AQ/2A","lat":42.357861,"lon":13.36463},{"id":"1:D00490","name":"SS17 Ovest lato Via del Mulino di Pile","lat":42.359211,"lon":13.36925},{"id":"1:D00390","name":"SS17 Ovest fronte ingresso A24","lat":42.359531,"lon":13.37155},{"id":"1:D00400","name":"SS17 fronte Hotel Amiternum","lat":42.360231,"lon":13.3763},{"id":"1:D00870","name":"Viale Corrado IV McDonald","lat":42.359161,"lon":13.38143},{"id":"1:D00950","name":"Viale Corrado IV Rotonda Piazza d'Armi","lat":42.356901,"lon":13.38633},{"id":"1:A00420","name":"Viale Croce Rossa bivio Via Vicentini","lat":42.356611,"lon":13.39155},{"id":"1:A00400","name":"Viale Croce Rossa lato Porta Branconio","lat":42.356511,"lon":13.3962},{"id":"1:A00380","name":"Viale Croce Rossa bivio Viale Ovidio","lat":42.356981,"lon":13.40128},{"id":"1:A00360","name":"Viale Croce Rossa Stadio Fattori C.Rossa","lat":42.357501,"lon":13.40403},{"id":"1:A00670","name":"Viale Antonio Panella lato Questura","lat":42.355101,"lon":13.40734},{"id":"1:B00180","name":"via Cencioni lato Stadio","lat":42.351171,"lon":13.41125},{"id":"1:B00200","name":"Via Della Crocetta - fronte edicola","lat":42.346481,"lon":13.41069},{"id":"1:A00000","name":"TERMINALBUS 0 ARRIVI BUS AMA","lat":42.344621,"lon":13.40115}],"trips":[{"id":"1:4800","tripHeadsign":"TERMINALBUS 0 ARRIVI BUS AMA","serviceId":"1:0ANNLUSA2016010120991231","shapeId":"ZZZZ1200222","direction":1,"departureStop":{"stopId":"1:H01150","stopName":"SS17 Deposito Ama Spa lato Ama","stopIndex":0,"stopCount":16,"scheduledArrival":46860,"scheduledDeparture":46860,"realtimeArrival":46860,"realtimeDeparture":46860,"arrivalDelay":0,"departureDelay":0,"timepoint":true,"realtime":false,"realtimeState":"SCHEDULED","serviceDay":0,"headsign":"TERMINALBUS 0 ARRIVI BUS AMA","continuousPickup":-999,"continuousDropOff":-999,"serviceAreaRadius":0},"arrivalStop":{"stopId":"1:A00000","stopName":"TERMINALBUS 0 ARRIVI BUS AMA","stopIndex":15,"stopCount":16,"scheduledArrival":48000,"scheduledDeparture":48000,"realtimeArrival":48000,"realtimeDeparture":48000,"arrivalDelay":0,"departureDelay":0,"timepoint":true,"realtime":false,"realtimeState":"SCHEDULED","serviceDay":0,"headsign":"TERMINALBUS 0 ARRIVI BUS AMA","continuousPickup":-999,"continuousDropOff":-999,"serviceAreaRadius":0},"tripShortName":"12"},{"id":"1:4802","tripHeadsign":"TERMINALBUS 0 ARRIVI BUS AMA","serviceId":"1:0ANNLUSA2016010120991231","shapeId":"ZZZZ1200222","direction":1,"departureStop":{"stopId":"1:H01150","stopName":"SS17 Deposito Ama Spa lato Ama","stopIndex":0,"stopCount":16,"scheduledArrival":23760,"scheduledDeparture":23760,"realtimeArrival":23760,"realtimeDeparture":23760,"arrivalDelay":0,"departureDelay":0,"timepoint":true,"realtime":false,"realtimeState":"SCHEDULED","serviceDay":0,"headsign":"TERMINALBUS 0 ARRIVI BUS AMA","continuousPickup":-999,"continuousDropOff":-999,"serviceAreaRadius":0},"arrivalStop":{"stopId":"1:A00000","stopName":"TERMINALBUS 0 ARRIVI BUS AMA","stopIndex":15,"stopCount":16,"scheduledArrival":24600,"scheduledDeparture":24600,"realtimeArrival":24600,"realtimeDeparture":24600,"arrivalDelay":0,"departureDelay":0,"timepoint":true,"realtime":false,"realtimeState":"SCHEDULED","serviceDay":0,"headsign":"TERMINALBUS 0 ARRIVI BUS AMA","continuousPickup":-999,"continuousDropOff":-999,"serviceAreaRadius":0},"tripShortName":"12"}]},"1:16:1:03":{"id":"1:16:1:03","desc":"16 to TERMINALBUS 0 ARRIVI BUS AMA (1:A00000) from Stazione Fossa Necropoli fronte Map (1:G01480)","routeId":"1:16","routeName":"16","trip_route":["16"],"trips_list":[],"busStopStart":"Stazione Fossa Necropoli fronte Map","busStopStartId":"1:G01480","busStopEnd":"TERMINALBUS 0 ARRIVI BUS AMA","busStopEndId":"1:A00000","stops":[{"id":"1:G01480","name":"Stazione Fossa Necropoli fronte Map","lat":42.306171,"lon":13.507727},{"id":"1:G00160","name":"SS17 San Gregorio lato Paese","lat":42.326381,"lon":13.49548},{"id":"1:G00140","name":"San Gregorio - case popolari - capolinea","lat":42.329261,"lon":13.49158},{"id":"1:G00120","name":"SS17 San Gregorio lato Via Mario Morelli","lat":42.328741,"lon":13.48789},{"id":"1:G00100","name":"SS17 Onna lato ex-mercato bestiame","lat":42.330291,"lon":13.4821},{"id":"1:G00060","name":"SS17 fronte bivio Onna paese","lat":42.331101,"lon":13.47972},{"id":"1:G00040","name":"SS17 Nucleo Ind.le Bazzano lato Auto4","lat":42.332891,"lon":13.472947},{"id":"1:G00010","name":"SS17 fronte Stazione Fs Paganica lato CC","lat":42.335601,"lon":13.46323},{"id":"1:F00020","name":"SS17 Bazzano lato Nord","lat":42.337161,"lon":13.45403},{"id":"1:C00520","name":"SS17 lato bivio Via Collevernesco","lat":42.335031,"lon":13.43515},{"id":"1:C00500","name":"SS17 S.Elia fronte C.da Loretuccio","lat":42.334981,"lon":13.42983},{"id":"1:C00480","name":"SS17 S.Elia entrata/uscita f. lato Nord","lat":42.335671,"lon":13.42425},{"id":"1:C00460","name":"SS17 S.Elia lato bivio Via Polveriera","lat":42.337371,"lon":13.41706},{"id":"1:C00440","name":"ss.17 bv. Avezzano","lat":42.339311,"lon":13.40988},{"id":"1:B01180","name":"Via Girolamo da Vicenza fronte Collemagg","lat":42.342731,"lon":13.40742},{"id":"1:A00000","name":"TERMINALBUS 0 ARRIVI BUS AMA","lat":42.344621,"lon":13.40115}],"trips":[{"id":"1:4705","tripHeadsign":"TERMINALBUS 0 ARRIVI BUS AMA","serviceId":"1:0ANNLUSA2016010120991231","shapeId":"ZZZZ1600082","direction":1,"departureStop":{"stopId":"1:G01480","stopName":"Stazione Fossa Necropoli fronte Map","stopIndex":0,"stopCount":16,"scheduledArrival":26100,"scheduledDeparture":26100,"realtimeArrival":26100,"realtimeDeparture":26100,"arrivalDelay":0,"departureDelay":0,"timepoint":true,"realtime":false,"realtimeState":"SCHEDULED","serviceDay":0,"headsign":"TERMINALBUS 0 ARRIVI BUS AMA","continuousPickup":-999,"continuousDropOff":-999,"serviceAreaRadius":0},"arrivalStop":{"stopId":"1:A00000","stopName":"TERMINALBUS 0 ARRIVI BUS AMA","stopIndex":15,"stopCount":16,"scheduledArrival":27600,"scheduledDeparture":27600,"realtimeArrival":27600,"realtimeDeparture":27600,"arrivalDelay":0,"departureDelay":0,"timepoint":true,"realtime":false,"realtimeState":"SCHEDULED","serviceDay":0,"headsign":"TERMINALBUS 0 ARRIVI BUS AMA","continuousPickup":-999,"continuousDropOff":-999,"serviceAreaRadius":0},"tripShortName":"16"},{"id":"1:4718","tripHeadsign":"TERMINALBUS 0 ARRIVI BUS AMA","serviceId":"1:0ANNLUSA2016010120991231","shapeId":"ZZZZ1600082","direction":1,"departureStop":{"stopId":"1:G01480","stopName":"Stazione Fossa Necropoli fronte Map","stopIndex":0,"stopCount":16,"scheduledArrival":73800,"scheduledDeparture":73800,"realtimeArrival":73800,"realtimeDeparture":73800,"arrivalDelay":0,"departureDelay":0,"timepoint":true,"realtime":false,"realtimeState":"SCHEDULED","serviceDay":0,"headsign":"TERMINALBUS 0 ARRIVI BUS AMA","continuousPickup":-999,"continuousDropOff":-999,"serviceAreaRadius":0},"arrivalStop":{"stopId":"1:A00000","stopName":"TERMINALBUS 0 ARRIVI BUS AMA","stopIndex":15,"stopCount":16,"scheduledArrival":75000,"scheduledDeparture":75000,"realtimeArrival":75000,"realtimeDeparture":75000,"arrivalDelay":0,"departureDelay":0,"timepoint":true,"realtime":false,"realtimeState":"SCHEDULED","serviceDay":0,"headsign":"TERMINALBUS 0 ARRIVI BUS AMA","continuousPickup":-999,"continuousDropOff":-999,"serviceAreaRadius":0},"tripShortName":"16"}]},"1:16:1:05":{"id":"1:16:1:05","desc":"16 to TERMINALBUS 0 ARRIVI BUS AMA (1:A00000) from Via Di Valle dir. Cavalletto Monticchio (1:G00530)","routeId":"1:16","routeName":"16","trip_route":["16"],"trips_list":[],"busStopStart":"Via Di Valle dir. Cavalletto Monticchio","busStopStartId":"1:G00530","busStopEnd":"TERMINALBUS 0 ARRIVI BUS AMA","busStopEndId":"1:A00000","stops":[{"id":"1:G00530","name":"Via Di Valle dir. Cavalletto Monticchio","lat":42.319731,"lon":13.4647},{"id":"1:G00550","name":"Via Di Valle lato via Platone Monticchio","lat":42.317731,"lon":13.46313},{"id":"1:G00570","name":"Via Puccini Cavalletto Ocre fr. cimitero","lat":42.312641,"lon":13.46017},{"id":"1:G00590","name":"s.p. 37 di cavalletto bar/Via Giacomo Pu","lat":42.309461,"lon":13.45916},{"id":"1:G00600","name":"Piazza Dante Cavalletto Ocre fron slargo","lat":42.306601,"lon":13.4578},{"id":"1:G00620","name":"Via Verdi lato Fontamara Cavalletto Ocre","lat":42.308851,"lon":13.45565},{"id":"1:G00650","name":"Via Marsicana lato Via Fura Civita Bagno","lat":42.308131,"lon":13.44673},{"id":"1:G00670","name":"Via Marsicana lato chiesa Civita Bagno","lat":42.309341,"lon":13.44337},{"id":"1:G00690","name":"Via Marsicana fr. San Paolo Civita Bagno","lat":42.311331,"lon":13.43925},{"id":"1:G01380","name":"Via Marsicana la Ponticello Civita Bagno","lat":42.312831,"lon":13.43651},{"id":"1:G00710","name":"Via Marsicana lato Pizzone Civita Bagno","lat":42.314771,"lon":13.433},{"id":"1:G00730","name":"Via Marsicana inizio dir. Mausonia","lat":42.316351,"lon":13.43081},{"id":"1:C00250","name":"Via Marsicana incrocio Mausonia","lat":42.318301,"lon":13.42925},{"id":"1:C00260","name":"SS5bis incrocio Via Mausonia lato chiesa","lat":42.320161,"lon":13.42763},{"id":"1:C00280","name":"SS5bis lato via Cippari - Esperita","lat":42.326731,"lon":13.42181},{"id":"1:C00300","name":"SS5bis fro via Fonte Augelli c.da Ciocca","lat":42.331631,"lon":13.41749},{"id":"1:C00320","name":"SS5bis Miraflores front via San Cipriano","lat":42.334161,"lon":13.41543},{"id":"1:C00340","name":"SS5bis fronte quartiere Bellavista","lat":42.337091,"lon":13.41138},{"id":"1:C00440","name":"ss.17 bv. Avezzano","lat":42.339311,"lon":13.40988},{"id":"1:B01180","name":"Via Girolamo da Vicenza fronte Collemagg","lat":42.342731,"lon":13.40742},{"id":"1:A00000","name":"TERMINALBUS 0 ARRIVI BUS AMA","lat":42.344621,"lon":13.40115}],"trips":[{"id":"1:4707","tripHeadsign":"TERMINALBUS 0 ARRIVI BUS AMA","serviceId":"1:0ANNLUSA2016010120991231","shapeId":"ZZZZ16/0022","direction":1,"departureStop":{"stopId":"1:G00530","stopName":"Via Di Valle dir. Cavalletto Monticchio","stopIndex":0,"stopCount":21,"scheduledArrival":26100,"scheduledDeparture":26100,"realtimeArrival":26100,"realtimeDeparture":26100,"arrivalDelay":0,"departureDelay":0,"timepoint":true,"realtime":false,"realtimeState":"SCHEDULED","serviceDay":0,"headsign":"TERMINALBUS 0 ARRIVI BUS AMA","continuousPickup":-999,"continuousDropOff":-999,"serviceAreaRadius":0},"arrivalStop":{"stopId":"1:A00000","stopName":"TERMINALBUS 0 ARRIVI BUS AMA","stopIndex":20,"stopCount":21,"scheduledArrival":27600,"scheduledDeparture":27600,"realtimeArrival":27600,"realtimeDeparture":27600,"arrivalDelay":0,"departureDelay":0,"timepoint":true,"realtime":false,"realtimeState":"SCHEDULED","serviceDay":0,"headsign":"TERMINALBUS 0 ARRIVI BUS AMA","continuousPickup":-999,"continuousDropOff":-999,"serviceAreaRadius":0},"tripShortName":"16"}]},"1:6:0:01":{"id":"1:6:0:01","desc":"6 to Fonte Cerreto Funivia CTGS partenze bus (1:F00590)","routeId":"1:6","routeName":"6","trip_route":["M6"],"trips_list":[],"busStopStart":"TERMINALBUS STALLO BUS AMA 2","busStopStartId":"1:A00002","busStopEnd":"Fonte Cerreto Funivia CTGS partenze bus","busStopEndId":"1:F00590","stops":[{"id":"1:A00002","name":"TERMINALBUS STALLO BUS AMA 2","lat":42.344401,"lon":13.4013},{"id":"1:B00190","name":"Via Della Crocetta - lato edicola","lat":42.346051,"lon":13.4108},{"id":"1:B00170","name":"via Cencioni lato Cimitero","lat":42.351481,"lon":13.41198},{"id":"1:B00150","name":"SS17 bis lato cimitero L'Aquila","lat":42.352281,"lon":13.41354},{"id":"1:B00290","name":"SS17 bis lato Via Polveriera","lat":42.351631,"lon":13.41778},{"id":"1:B00390","name":"SS17 bis fronte via della Collina","lat":42.354781,"lon":13.42553},{"id":"1:B00400","name":"SS17 bis lato via Vasca Penta","lat":42.356461,"lon":13.42883},{"id":"1:B00440","name":"SS17 bis fronte uscita casello A24","lat":42.363351,"lon":13.42933},{"id":"1:B00460","name":"SS17 bis fronte strada vic. Sant' Antimo","lat":42.364951,"lon":13.43148},{"id":"1:F00750","name":"SS17 bis lato civico 40 - miravalle","lat":42.365661,"lon":13.43458},{"id":"1:F00730","name":"SS17 bis zona miravalle - dir. Tempera","lat":42.367501,"lon":13.44006},{"id":"1:F01550","name":"Progetto CASE Tempera","lat":42.367812,"lon":13.452117},{"id":"1:F00710","name":"SS17 bis Tempera fronte Via del Salice","lat":42.363701,"lon":13.45331},{"id":"1:F00680","name":"SS17 bis Tempera fronte via del Mulino","lat":42.364931,"lon":13.45848},{"id":"1:F01110","name":"CASE paganica 1 - entrata","lat":42.362611,"lon":13.46218},{"id":"1:F01120","name":"CASE paganica 1","lat":42.362101,"lon":13.46175},{"id":"1:F01130","name":"SS17 bis Tempera fronte via Biordi","lat":42.364011,"lon":13.46136},{"id":"1:F00660","name":"SS17 bis Paganica fronte via fontanelle","lat":42.363311,"lon":13.46486},{"id":"1:F00640","name":"SS17 bis Paganica fronte via del cinema","lat":42.361801,"lon":13.4674},{"id":"1:F00120","name":"Piazza Paganica fronte monumento SP103","lat":42.358661,"lon":13.47106},{"id":"1:F00620","name":"SS17 bis Via Oberdan fronte via Adamello","lat":42.361161,"lon":13.4721},{"id":"1:F00600","name":"SS17 bis front chiesa Valleverde Camarda","lat":42.387131,"lon":13.49211},{"id":"1:F00470","name":"SS17 bis Camarda fronte Paese","lat":42.389501,"lon":13.49413},{"id":"1:F01490","name":"Progetto CASE Camarda entrata","lat":42.390045,"lon":13.496212},{"id":"1:F01500","name":"Progetto Case Camarda Capolinea","lat":42.390294,"lon":13.498066},{"id":"1:F01510","name":"Progetto Case Camarda uscita","lat":42.390212,"lon":13.496251},{"id":"1:F00490","name":"SS17 bis Camarda fronte farmacia","lat":42.392781,"lon":13.49678},{"id":"1:F00510","name":"SS17 bis Assergi fronte Via del Convento","lat":42.413711,"lon":13.50678},{"id":"1:F00515","name":"SS17 bis Assergi Via Pretara","lat":42.414341,"lon":13.50887},{"id":"1:F01080","name":"SS17 bis Assergi Via Portella fr. Franco","lat":42.415051,"lon":13.50723},{"id":"1:F00530","name":"SS17 bis Assergi lato Via delle Cesole","lat":42.415861,"lon":13.50707},{"id":"1:F00550","name":"SS17 bis Assergi Via Dei Monti lato Est","lat":42.417921,"lon":13.50815},{"id":"1:F00580","name":"Laboratori del Gran Sasso INFN fro. lab.","lat":42.420461,"lon":13.51466},{"id":"1:F01090","name":"Progetto CASE Assergi","lat":42.419011,"lon":13.52143},{"id":"1:F01100","name":"Laboratori del Gran Sasso INFN lato lab.","lat":42.420531,"lon":13.51499},{"id":"1:F00590","name":"Fonte Cerreto Funivia CTGS partenze bus","lat":42.425791,"lon":13.52833}],"trips":[{"id":"1:4633","tripHeadsign":"Fonte Cerreto Funivia CTGS partenze bus","serviceId":"1:0ANNLUSA2016010120991231","shapeId":"ZZZZZ6M0011","direction":0,"departureStop":{"stopId":"1:A00002","stopName":"TERMINALBUS STALLO BUS AMA 2","stopIndex":0,"stopCount":36,"scheduledArrival":29100,"scheduledDeparture":29100,"realtimeArrival":29100,"realtimeDeparture":29100,"arrivalDelay":0,"departureDelay":0,"timepoint":true,"realtime":false,"realtimeState":"SCHEDULED","serviceDay":0,"headsign":"Fonte Cerreto Funivia CTGS partenze bus","continuousPickup":-999,"continuousDropOff":-999,"serviceAreaRadius":0},"arrivalStop":{"stopId":"1:F00590","stopName":"Fonte Cerreto Funivia CTGS partenze bus","stopIndex":35,"stopCount":36,"scheduledArrival":31200,"scheduledDeparture":31200,"realtimeArrival":31200,"realtimeDeparture":31200,"arrivalDelay":0,"departureDelay":0,"timepoint":true,"realtime":false,"realtimeState":"SCHEDULED","serviceDay":0,"headsign":"Fonte Cerreto Funivia CTGS partenze bus","continuousPickup":-999,"continuousDropOff":-999,"serviceAreaRadius":0},"tripShortName":"M6"},{"id":"1:4634","tripHeadsign":"Fonte Cerreto Funivia CTGS partenze bus","serviceId":"1:0ANNLUSA2016010120991231","shapeId":"ZZZZZ6M0011","direction":0,"departureStop":{"stopId":"1:A00002","stopName":"TERMINALBUS STALLO BUS AMA 2","stopIndex":0,"stopCount":36,"scheduledArrival":36000,"scheduledDeparture":36000,"realtimeArrival":36000,"realtimeDeparture":36000,"arrivalDelay":0,"departureDelay":0,"timepoint":true,"realtime":false,"realtimeState":"SCHEDULED","serviceDay":0,"headsign":"Fonte Cerreto Funivia CTGS partenze bus","continuousPickup":-999,"continuousDropOff":-999,"serviceAreaRadius":0},"arrivalStop":{"stopId":"1:F00590","stopName":"Fonte Cerreto Funivia CTGS partenze bus","stopIndex":35,"stopCount":36,"scheduledArrival":38400,"scheduledDeparture":38400,"realtimeArrival":38400,"realtimeDeparture":38400,"arrivalDelay":0,"departureDelay":0,"timepoint":true,"realtime":false,"realtimeState":"SCHEDULED","serviceDay":0,"headsign":"Fonte Cerreto Funivia CTGS partenze bus","continuousPickup":-999,"continuousDropOff":-999,"serviceAreaRadius":0},"tripShortName":"M6"},{"id":"1:4635","tripHeadsign":"Fonte Cerreto Funivia CTGS partenze bus","serviceId":"1:0ANNLUSA2016010120991231","shapeId":"ZZZZZ6M0011","direction":0,"departureStop":{"stopId":"1:A00002","stopName":"TERMINALBUS STALLO BUS AMA 2","stopIndex":0,"stopCount":36,"scheduledArrival":43200,"scheduledDeparture":43200,"realtimeArrival":43200,"realtimeDeparture":43200,"arrivalDelay":0,"departureDelay":0,"timepoint":true,"realtime":false,"realtimeState":"SCHEDULED","serviceDay":0,"headsign":"Fonte Cerreto Funivia CTGS partenze bus","continuousPickup":-999,"continuousDropOff":-999,"serviceAreaRadius":0},"arrivalStop":{"stopId":"1:F00590","stopName":"Fonte Cerreto Funivia CTGS partenze bus","stopIndex":35,"stopCount":36,"scheduledArrival":45600,"scheduledDeparture":45600,"realtimeArrival":45600,"realtimeDeparture":45600,"arrivalDelay":0,"departureDelay":0,"timepoint":true,"realtime":false,"realtimeState":"SCHEDULED","serviceDay":0,"headsign":"Fonte Cerreto Funivia CTGS partenze bus","continuousPickup":-999,"continuousDropOff":-999,"serviceAreaRadius":0},"tripShortName":"M6"},{"id":"1:4636","tripHeadsign":"Fonte Cerreto Funivia CTGS partenze bus","serviceId":"1:0ANNLUSA2016010120991231","shapeId":"ZZZZZ6M0011","direction":0,"departureStop":{"stopId":"1:A00002","stopName":"TERMINALBUS STALLO BUS AMA 2","stopIndex":0,"stopCount":36,"scheduledArrival":51000,"scheduledDeparture":51000,"realtimeArrival":51000,"realtimeDeparture":51000,"arrivalDelay":0,"departureDelay":0,"timepoint":true,"realtime":false,"realtimeState":"SCHEDULED","serviceDay":0,"headsign":"Fonte Cerreto Funivia CTGS partenze bus","continuousPickup":-999,"continuousDropOff":-999,"serviceAreaRadius":0},"arrivalStop":{"stopId":"1:F00590","stopName":"Fonte Cerreto Funivia CTGS partenze bus","stopIndex":35,"stopCount":36,"scheduledArrival":53400,"scheduledDeparture":53400,"realtimeArrival":53400,"realtimeDeparture":53400,"arrivalDelay":0,"departureDelay":0,"timepoint":true,"realtime":false,"realtimeState":"SCHEDULED","serviceDay":0,"headsign":"Fonte Cerreto Funivia CTGS partenze bus","continuousPickup":-999,"continuousDropOff":-999,"serviceAreaRadius":0},"tripShortName":"M6"},{"id":"1:4637","tripHeadsign":"Fonte Cerreto Funivia CTGS partenze bus","serviceId":"1:0ANNLUSA2016010120991231","shapeId":"ZZZZZ6M0011","direction":0,"departureStop":{"stopId":"1:A00002","stopName":"TERMINALBUS STALLO BUS AMA 2","stopIndex":0,"stopCount":36,"scheduledArrival":57600,"scheduledDeparture":57600,"realtimeArrival":57600,"realtimeDeparture":57600,"arrivalDelay":0,"departureDelay":0,"timepoint":true,"realtime":false,"realtimeState":"SCHEDULED","serviceDay":0,"headsign":"Fonte Cerreto Funivia CTGS partenze bus","continuousPickup":-999,"continuousDropOff":-999,"serviceAreaRadius":0},"arrivalStop":{"stopId":"1:F00590","stopName":"Fonte Cerreto Funivia CTGS partenze bus","stopIndex":35,"stopCount":36,"scheduledArrival":60000,"scheduledDeparture":60000,"realtimeArrival":60000,"realtimeDeparture":60000,"arrivalDelay":0,"departureDelay":0,"timepoint":true,"realtime":false,"realtimeState":"SCHEDULED","serviceDay":0,"headsign":"Fonte Cerreto Funivia CTGS partenze bus","continuousPickup":-999,"continuousDropOff":-999,"serviceAreaRadius":0},"tripShortName":"M6"},{"id":"1:4638","tripHeadsign":"Fonte Cerreto Funivia CTGS partenze bus","serviceId":"1:0ANNLUSA2016010120991231","shapeId":"ZZZZZ6M0011","direction":0,"departureStop":{"stopId":"1:A00002","stopName":"TERMINALBUS STALLO BUS AMA 2","stopIndex":0,"stopCount":36,"scheduledArrival":64800,"scheduledDeparture":64800,"realtimeArrival":64800,"realtimeDeparture":64800,"arrivalDelay":0,"departureDelay":0,"timepoint":true,"realtime":false,"realtimeState":"SCHEDULED","serviceDay":0,"headsign":"Fonte Cerreto Funivia CTGS partenze bus","continuousPickup":-999,"continuousDropOff":-999,"serviceAreaRadius":0},"arrivalStop":{"stopId":"1:F00590","stopName":"Fonte Cerreto Funivia CTGS partenze bus","stopIndex":35,"stopCount":36,"scheduledArrival":67200,"scheduledDeparture":67200,"realtimeArrival":67200,"realtimeDeparture":67200,"arrivalDelay":0,"departureDelay":0,"timepoint":true,"realtime":false,"realtimeState":"SCHEDULED","serviceDay":0,"headsign":"Fonte Cerreto Funivia CTGS partenze bus","continuousPickup":-999,"continuousDropOff":-999,"serviceAreaRadius":0},"tripShortName":"M6"},{"id":"1:4639","tripHeadsign":"Fonte Cerreto Funivia CTGS partenze bus","serviceId":"1:0ANNLUSA2016010120991231","shapeId":"ZZZZZ6M0011","direction":0,"departureStop":{"stopId":"1:A00002","stopName":"TERMINALBUS STALLO BUS AMA 2","stopIndex":0,"stopCount":36,"scheduledArrival":73800,"scheduledDeparture":73800,"realtimeArrival":73800,"realtimeDeparture":73800,"arrivalDelay":0,"departureDelay":0,"timepoint":true,"realtime":false,"realtimeState":"SCHEDULED","serviceDay":0,"headsign":"Fonte Cerreto Funivia CTGS partenze bus","continuousPickup":-999,"continuousDropOff":-999,"serviceAreaRadius":0},"arrivalStop":{"stopId":"1:F00590","stopName":"Fonte Cerreto Funivia CTGS partenze bus","stopIndex":35,"stopCount":36,"scheduledArrival":76200,"scheduledDeparture":76200,"realtimeArrival":76200,"realtimeDeparture":76200,"arrivalDelay":0,"departureDelay":0,"timepoint":true,"realtime":false,"realtimeState":"SCHEDULED","serviceDay":0,"headsign":"Fonte Cerreto Funivia CTGS partenze bus","continuousPickup":-999,"continuousDropOff":-999,"serviceAreaRadius":0},"tripShortName":"M6"}]},"1:1:1:07":{"id":"1:1:1:07","desc":"1 to Monteluco di Roio Facolta di Ingegneria (1:R00140)","routeId":"1:1","routeName":"1","trip_route":["1R"],"trips_list":[],"busStopStart":"TERMINALBUS STALLO BUS AMA 2","busStopStartId":"1:A00002","busStopEnd":"Monteluco di Roio Facolta di Ingegneria","busStopEndId":"1:R00140","stops":[{"id":"1:A00002","name":"TERMINALBUS STALLO BUS AMA 2","lat":42.344401,"lon":13.4013},{"id":"1:A00160","name":"Viale Caldora fronte Collemaggio","lat":42.343601,"lon":13.40188},{"id":"1:A00140","name":"V.le Collemaggio lato Emiciclo Regione","lat":42.344161,"lon":13.3978},{"id":"1:A00110","name":"Viale Crispi lato Cristo Re","lat":42.343991,"lon":13.39626},{"id":"1:A00120","name":"V.le Crispi Porta Napoli fro XXIV Maggio","lat":42.342351,"lon":13.39533},{"id":"1:C00020","name":"SS615 Via Ponte Rasarolo fronte Martini","lat":42.340621,"lon":13.39907},{"id":"1:C00040","name":"SR615 Via Ponte Rasarolo PL dr.Mausonia","lat":42.338031,"lon":13.40058},{"id":"1:C00060","name":"SR615 fronte ristorante dir.Martini","lat":42.336111,"lon":13.40237},{"id":"1:C00080","name":"SR615 fronte Via Colleverde","lat":42.332741,"lon":13.40299},{"id":"1:G00750","name":"SR615 Sopra Rotonda fronte Totani Irish","lat":42.330701,"lon":13.40338},{"id":"1:G00770","name":"SR615 Pianola lato Via Dell' Allodola","lat":42.328831,"lon":13.40621},{"id":"1:G00790","name":"SR615 Pianola fronte Via San Giuseppe","lat":42.325881,"lon":13.40626},{"id":"1:G00810","name":"SR615 Pianola fronte Via Giada","lat":42.324881,"lon":13.40565},{"id":"1:G00820","name":"SR615 Pianola Piazza dir. Roio","lat":42.323561,"lon":13.40333},{"id":"1:G00850","name":"SR615 Pianola Via San Lorenzo dir. Roio","lat":42.324681,"lon":13.40025},{"id":"1:R00110","name":"SR615 Roio Poggio - lato Miramonti","lat":42.333851,"lon":13.38018},{"id":"1:R00130","name":"SR615 Via Della Pineta dir. Monteluco","lat":42.335781,"lon":13.38068},{"id":"1:R00140","name":"Monteluco di Roio Facolta di Ingegneria","lat":42.336761,"lon":13.37643}],"trips":[{"id":"1:4190","tripHeadsign":"Monteluco di Roio Facolta di Ingegneria","serviceId":"1:0ANNLUVE2016010120991231","shapeId":"ZZZZZ1R0022","direction":1,"departureStop":{"stopId":"1:A00002","stopName":"TERMINALBUS STALLO BUS AMA 2","stopIndex":0,"stopCount":18,"scheduledArrival":27600,"scheduledDeparture":27600,"realtimeArrival":27600,"realtimeDeparture":27600,"arrivalDelay":0,"departureDelay":0,"timepoint":true,"realtime":false,"realtimeState":"SCHEDULED","serviceDay":0,"headsign":"Monteluco di Roio Facolta di Ingegneria","continuousPickup":-999,"continuousDropOff":-999,"serviceAreaRadius":0},"arrivalStop":{"stopId":"1:R00140","stopName":"Monteluco di Roio Facolta di Ingegneria","stopIndex":17,"stopCount":18,"scheduledArrival":28800,"scheduledDeparture":28800,"realtimeArrival":28800,"realtimeDeparture":28800,"arrivalDelay":0,"departureDelay":0,"timepoint":true,"realtime":false,"realtimeState":"SCHEDULED","serviceDay":0,"headsign":"Monteluco di Roio Facolta di Ingegneria","continuousPickup":-999,"continuousDropOff":-999,"serviceAreaRadius":0},"tripShortName":"1R"},{"id":"1:4192","tripHeadsign":"Monteluco di Roio Facolta di Ingegneria","serviceId":"1:0ANNLUVE2016010120991231","shapeId":"ZZZZZ1R0022","direction":1,"departureStop":{"stopId":"1:A00002","stopName":"TERMINALBUS STALLO BUS AMA 2","stopIndex":0,"stopCount":18,"scheduledArrival":29700,"scheduledDeparture":29700,"realtimeArrival":29700,"realtimeDeparture":29700,"arrivalDelay":0,"departureDelay":0,"timepoint":true,"realtime":false,"realtimeState":"SCHEDULED","serviceDay":0,"headsign":"Monteluco di Roio Facolta di Ingegneria","continuousPickup":-999,"continuousDropOff":-999,"serviceAreaRadius":0},"arrivalStop":{"stopId":"1:R00140","stopName":"Monteluco di Roio Facolta di Ingegneria","stopIndex":17,"stopCount":18,"scheduledArrival":30900,"scheduledDeparture":30900,"realtimeArrival":30900,"realtimeDeparture":30900,"arrivalDelay":0,"departureDelay":0,"timepoint":true,"realtime":false,"realtimeState":"SCHEDULED","serviceDay":0,"headsign":"Monteluco di Roio Facolta di Ingegneria","continuousPickup":-999,"continuousDropOff":-999,"serviceAreaRadius":0},"tripShortName":"1R"},{"id":"1:4194","tripHeadsign":"Monteluco di Roio Facolta di Ingegneria","serviceId":"1:0ANNLUVE2016010120991231","shapeId":"ZZZZZ1R0022","direction":1,"departureStop":{"stopId":"1:A00002","stopName":"TERMINALBUS STALLO BUS AMA 2","stopIndex":0,"stopCount":18,"scheduledArrival":51600,"scheduledDeparture":51600,"realtimeArrival":51600,"realtimeDeparture":51600,"arrivalDelay":0,"departureDelay":0,"timepoint":true,"realtime":false,"realtimeState":"SCHEDULED","serviceDay":0,"headsign":"Monteluco di Roio Facolta di Ingegneria","continuousPickup":-999,"continuousDropOff":-999,"serviceAreaRadius":0},"arrivalStop":{"stopId":"1:R00140","stopName":"Monteluco di Roio Facolta di Ingegneria","stopIndex":17,"stopCount":18,"scheduledArrival":52800,"scheduledDeparture":52800,"realtimeArrival":52800,"realtimeDeparture":52800,"arrivalDelay":0,"departureDelay":0,"timepoint":true,"realtime":false,"realtimeState":"SCHEDULED","serviceDay":0,"headsign":"Monteluco di Roio Facolta di Ingegneria","continuousPickup":-999,"continuousDropOff":-999,"serviceAreaRadius":0},"tripShortName":"1R"}]},"1:12:0:03":{"id":"1:12:0:03","desc":"12 to Via Casavecchia Prata Lucoli fronte civ3 (1:H00170) from TERMINALBUS STALLO BUS AMA 2 (1:A00002) via SS17 lato Hotel Amiternum (1:D00410)","routeId":"1:12","routeName":"12","trip_route":["12"],"trips_list":[],"busStopStart":"TERMINALBUS STALLO BUS AMA 2","busStopStartId":"1:A00002","busStopEnd":"Via Casavecchia Prata Lucoli fronte civ3","busStopEndId":"1:H00170","stops":[{"id":"1:A00002","name":"TERMINALBUS STALLO BUS AMA 2","lat":42.344401,"lon":13.4013},{"id":"1:B00190","name":"Via Della Crocetta - lato edicola","lat":42.346051,"lon":13.4108},{"id":"1:B00170","name":"via Cencioni lato Cimitero","lat":42.351481,"lon":13.41198},{"id":"1:A00660","name":"Viale Antonio Panella lato caserma","lat":42.355181,"lon":13.40742},{"id":"1:A00370","name":"Viale Croce Rossa bivio Via Moscardelli","lat":42.357531,"lon":13.40388},{"id":"1:A00390","name":"Viale Croce Rossa bv. Via Monte Camicia","lat":42.357011,"lon":13.39878},{"id":"1:A00410","name":"Viale Croce Rossa bivio Valle Pretara","lat":42.356691,"lon":13.39506},{"id":"1:A00430","name":"Viale Croce Rossa bivio Via San Sisto","lat":42.357061,"lon":13.39041},{"id":"1:E00640","name":"Via Beato Cesidio Santanza","lat":42.358361,"lon":13.38643},{"id":"1:E00680","name":"Via Beato Cesidio Piazza Italia","lat":42.361151,"lon":13.38693},{"id":"1:E00720","name":"Via R.Paolucci piazza Ayala S.Barbara","lat":42.362561,"lon":13.38541},{"id":"1:E00600","name":"Via Piccinini chiesa","lat":42.362961,"lon":13.38301},{"id":"1:E00630","name":"v.piccinini p.d'armi","lat":42.361301,"lon":13.38057},{"id":"1:D00410","name":"SS17 lato Hotel Amiternum","lat":42.360451,"lon":13.37713},{"id":"1:D00380","name":"SS17 Ovest lato ingresso A24","lat":42.359671,"lon":13.37088},{"id":"1:D00500","name":"SS17 Ovest lato Via dei Medici","lat":42.359441,"lon":13.36949},{"id":"1:D00510","name":"piazzale italtel AQ/2A","lat":42.357861,"lon":13.36463},{"id":"1:D01010","name":"SS17 Ovest Sede Centro Postale","lat":42.360201,"lon":13.35673},{"id":"1:H01140","name":"SS17 Deposito Ama Spa fronte Ama","lat":42.358481,"lon":13.35131},{"id":"1:D00140","name":"Via Campo di Pile Optimes","lat":42.35205,"lon":13.34895},{"id":"1:D00080","name":"Via Saragat fronte IN'S","lat":42.350531,"lon":13.34733},{"id":"1:D00075","name":"Via Saragat fronte BPER","lat":42.351148,"lon":13.344464},{"id":"1:D00065","name":"Via Saragat fronte bar 20","lat":42.352811,"lon":13.33944},{"id":"1:H01420","name":"SS584 fiume Raio lato deposito legname","lat":42.355891,"lon":13.33298},{"id":"1:H01100","name":"SS584 fronte Via della Fontana Genzano","lat":42.35565,"lon":13.32738},{"id":"1:H01080","name":"ss. 584 agip genzano","lat":42.35392,"lon":13.32403},{"id":"1:H01470","name":"SS584 fronte abitazioni Genzano bv. Roio","lat":42.35265,"lon":13.32271},{"id":"1:H00060","name":"Via Roio Genzano paese lato Via Meruci","lat":42.35146,"lon":13.32251},{"id":"1:H00050","name":"Via Roio Genzano front Via Colle Mancino","lat":42.35106,"lon":13.32623},{"id":"1:H00070","name":"Via Roio Genzano paese fronte Via Meruci","lat":42.35159,"lon":13.32245},{"id":"1:H00080","name":"SS584 lato abitazioni Genzano bv. Roio","lat":42.35261,"lon":13.32283},{"id":"1:H01400","name":"SP1 lato cimitero Pgliare di Sassa","lat":42.35298,"lon":13.32008},{"id":"1:H01060","name":"SP1 fronte Ex Sercom Pagliare Sassa","lat":42.35285,"lon":13.31619},{"id":"1:H01380","name":"SP1 fronte via B Di Mario Pagliare Sassa","lat":42.3529,"lon":13.31425},{"id":"1:H00970","name":"SP1 fronte scuola media Pagliare Sassa","lat":42.35171,"lon":13.3091},{"id":"1:H00900","name":"Via Duca Abruzzi front scuola Pagl Sassa","lat":42.35202,"lon":13.30673},{"id":"1:H00860","name":"Via Duca Abruzzi lato carabinieri Sassa","lat":42.35237,"lon":13.30161},{"id":"1:H00840","name":"Via Duca Abruzzi fronte via Fonte Sassa","lat":42.35237,"lon":13.29815},{"id":"1:H00820","name":"Via Ponte San Giovanni Sassa lato poste","lat":42.35318,"lon":13.29181},{"id":"1:H01370","name":"Via Ponte San Giovanni n.57 c.da S.Carlo","lat":42.35344,"lon":13.28874},{"id":"1:H00800","name":"Via Ponte San Giovanni fronte civico 80","lat":42.35412,"lon":13.28527},{"id":"1:H00780","name":"SP1 Ponte San Giovanni lato ponte","lat":42.35115,"lon":13.28072},{"id":"1:H00770","name":"SP1 Amiternina fronte via Brecciasecca 1","lat":42.34422,"lon":13.28213},{"id":"1:H00610","name":"Via Brecciasecca fron via Del Rio Brecc.","lat":42.34536,"lon":13.28548},{"id":"1:H00590","name":"Via Brecciasecca fron esteti. Collesassa","lat":42.34685,"lon":13.28833},{"id":"1:H00570","name":"Via Brecciasecca lato chiesa Collesassa","lat":42.34723,"lon":13.29069},{"id":"1:H00550","name":"Via Poggio Santa Maria lato via Caionari","lat":42.3457,"lon":13.29241},{"id":"1:H00540","name":"Via Poggio Santa Maria lato civico 31","lat":42.34465,"lon":13.29326},{"id":"1:H01480","name":"SP Silvaplana via Colle lato Soalco","lat":42.33872,"lon":13.30185},{"id":"1:H00510","name":"SP Silvaplana via Colle lato Valle Ricci","lat":42.33586,"lon":13.30238},{"id":"1:H00490","name":"Silvaplana via Colle lato MAP Poggio S.M","lat":42.33261,"lon":13.30205},{"id":"1:H00470","name":"Silvaplana via Colle fron Nocella Po.S.M","lat":42.33061,"lon":13.29823},{"id":"1:H00450","name":"SP Silvaplana dir. Collemare San Martino","lat":42.32976,"lon":13.3023},{"id":"1:H00440","name":"SP Silvaplana dir. Collemare front n. 18","lat":42.32895,"lon":13.305},{"id":"1:H00420","name":"SP Silvaplana fronte sdrucciolo d. Croce","lat":42.3268,"lon":13.30651},{"id":"1:H00390","name":"Silvaplana piazza Collemare lato fontana","lat":42.32473,"lon":13.30403},{"id":"1:H00370","name":"Silvaplana Collemare lato San Martino","lat":42.32285,"lon":13.30505},{"id":"1:H00350","name":"Silvaplana Collemare fronte civ. 46","lat":42.32196,"lon":13.30635},{"id":"1:H00330","name":"s.p.5 s.andrea uscita","lat":42.3176,"lon":13.31493},{"id":"1:H00310","name":"Via Tartaglione Sant'Andrea Lucoli cv.41","lat":42.31598,"lon":13.31653},{"id":"1:H00290","name":"Via Tartaglione Sant'Andrea Lucoli civ.3","lat":42.314161,"lon":13.31786},{"id":"1:H00295","name":"via Santa Menna Lucoli lato campo sport.","lat":42.312991,"lon":13.31885},{"id":"1:H00270","name":"via Santa Menna Lucoli Mulino civico 13","lat":42.311531,"lon":13.32047},{"id":"1:H00250","name":"Santa Menna Lucoli lat.largo del Mancino","lat":42.310411,"lon":13.3209},{"id":"1:H00230","name":"Via Gatti Francolisco Lucoli lat.fontana","lat":42.308291,"lon":13.32041},{"id":"1:H00210","name":"Santa Croce di Lucoli front via d. vigne","lat":42.304751,"lon":13.31933},{"id":"1:H00190","name":"Santa Croce di Lucoli lato via le croci","lat":42.303251,"lon":13.31783},{"id":"1:H00180","name":"Peschiolo di Lucoli via del querceto","lat":42.297231,"lon":13.32685},{"id":"1:H00160","name":"Via del querceto Peschiolo fr.e pizzeria","lat":42.298021,"lon":13.32726},{"id":"1:H00170","name":"Via Casavecchia Prata Lucoli fronte civ3","lat":42.295561,"lon":13.33058}],"trips":[{"id":"1:4783","tripHeadsign":"Via Casavecchia Prata Lucoli fronte civ3","serviceId":"1:0ANNLUSA2016010120991231","shapeId":"ZZZZ1200011","direction":0,"departureStop":{"stopId":"1:A00002","stopName":"TERMINALBUS STALLO BUS AMA 2","stopIndex":0,"stopCount":70,"scheduledArrival":59400,"scheduledDeparture":59400,"realtimeArrival":59400,"realtimeDeparture":59400,"arrivalDelay":0,"departureDelay":0,"timepoint":true,"realtime":false,"realtimeState":"SCHEDULED","serviceDay":0,"headsign":"Via Casavecchia Prata Lucoli fronte civ3","continuousPickup":-999,"continuousDropOff":-999,"serviceAreaRadius":0},"arrivalStop":{"stopId":"1:H00170","stopName":"Via Casavecchia Prata Lucoli fronte civ3","stopIndex":69,"stopCount":70,"scheduledArrival":62700,"scheduledDeparture":62700,"realtimeArrival":62700,"realtimeDeparture":62700,"arrivalDelay":0,"departureDelay":0,"timepoint":true,"realtime":false,"realtimeState":"SCHEDULED","serviceDay":0,"headsign":"Via Casavecchia Prata Lucoli fronte civ3","continuousPickup":-999,"continuousDropOff":-999,"serviceAreaRadius":0},"tripShortName":"12"}]},"1:12:0:02":{"id":"1:12:0:02","desc":"12 to Via Casavecchia Prata Lucoli fronte civ3 (1:H00170) from TERMINALBUS STALLO BUS AMA 2 (1:A00002) via SS80 fronte Hotel Amiternum lato Caserma (1:D00840)","routeId":"1:12","routeName":"12","trip_route":["12"],"trips_list":[],"busStopStart":"TERMINALBUS STALLO BUS AMA 2","busStopStartId":"1:A00002","busStopEnd":"Via Casavecchia Prata Lucoli fronte civ3","busStopEndId":"1:H00170","stops":[{"id":"1:A00002","name":"TERMINALBUS STALLO BUS AMA 2","lat":42.344401,"lon":13.4013},{"id":"1:B00190","name":"Via Della Crocetta - lato edicola","lat":42.346051,"lon":13.4108},{"id":"1:B00170","name":"via Cencioni lato Cimitero","lat":42.351481,"lon":13.41198},{"id":"1:A00660","name":"Viale Antonio Panella lato caserma","lat":42.355181,"lon":13.40742},{"id":"1:A00370","name":"Viale Croce Rossa bivio Via Moscardelli","lat":42.357531,"lon":13.40388},{"id":"1:A00390","name":"Viale Croce Rossa bv. Via Monte Camicia","lat":42.357011,"lon":13.39878},{"id":"1:A00410","name":"Viale Croce Rossa bivio Valle Pretara","lat":42.356691,"lon":13.39506},{"id":"1:A00430","name":"Viale Croce Rossa bivio Via San Sisto","lat":42.357061,"lon":13.39041},{"id":"1:E00640","name":"Via Beato Cesidio Santanza","lat":42.358361,"lon":13.38643},{"id":"1:E00680","name":"Via Beato Cesidio Piazza Italia","lat":42.361151,"lon":13.38693},{"id":"1:E00720","name":"Via R.Paolucci piazza Ayala S.Barbara","lat":42.362561,"lon":13.38541},{"id":"1:E00600","name":"Via Piccinini chiesa","lat":42.362961,"lon":13.38301},{"id":"1:E00630","name":"v.piccinini p.d'armi","lat":42.361301,"lon":13.38057},{"id":"1:D00840","name":"SS80 fronte Hotel Amiternum lato Caserma","lat":42.360901,"lon":13.37729},{"id":"1:D00820","name":"SS80 lato Campomizzi","lat":42.361801,"lon":13.37495},{"id":"1:D00800","name":"SS80 lato casa cantoniera Via Pitinum","lat":42.364401,"lon":13.36747},{"id":"1:D00780","name":"SS80 lato Via Uruguay fronte Via Medici","lat":42.366651,"lon":13.36279},{"id":"1:D00760","name":"SS80 lato Via Manzoni","lat":42.368451,"lon":13.35937},{"id":"1:D00680","name":"Via Vetoio Universita fronte Ospedale","lat":42.367801,"lon":13.35246},{"id":"1:D00660","name":"Via Vetoio fronte via Morgagni","lat":42.367701,"lon":13.34787},{"id":"1:D00630","name":"Via Borsellino lato Via sotto la Chiesa","lat":42.366311,"lon":13.34577},{"id":"1:D00580","name":"Via Falcone lato Via delle Svolte SP33","lat":42.364581,"lon":13.34735},{"id":"1:D00570","name":"Via Falcone fermata lato Ovest SP33","lat":42.362561,"lon":13.35073},{"id":"1:D00550","name":"Via Falcone lato Reiss Romoli SP33","lat":42.360361,"lon":13.35171},{"id":"1:H01140","name":"SS17 Deposito Ama Spa fronte Ama","lat":42.358481,"lon":13.35131},{"id":"1:D00140","name":"Via Campo di Pile Optimes","lat":42.35205,"lon":13.34895},{"id":"1:D00080","name":"Via Saragat fronte IN'S","lat":42.350531,"lon":13.34733},{"id":"1:D00075","name":"Via Saragat fronte BPER","lat":42.351148,"lon":13.344464},{"id":"1:D00065","name":"Via Saragat fronte bar 20","lat":42.352811,"lon":13.33944},{"id":"1:H01420","name":"SS584 fiume Raio lato deposito legname","lat":42.355891,"lon":13.33298},{"id":"1:H01100","name":"SS584 fronte Via della Fontana Genzano","lat":42.35565,"lon":13.32738},{"id":"1:H01080","name":"ss. 584 agip genzano","lat":42.35392,"lon":13.32403},{"id":"1:H01470","name":"SS584 fronte abitazioni Genzano bv. Roio","lat":42.35265,"lon":13.32271},{"id":"1:H00060","name":"Via Roio Genzano paese lato Via Meruci","lat":42.35146,"lon":13.32251},{"id":"1:H00050","name":"Via Roio Genzano front Via Colle Mancino","lat":42.35106,"lon":13.32623},{"id":"1:H00070","name":"Via Roio Genzano paese fronte Via Meruci","lat":42.35159,"lon":13.32245},{"id":"1:H00080","name":"SS584 lato abitazioni Genzano bv. Roio","lat":42.35261,"lon":13.32283},{"id":"1:H01400","name":"SP1 lato cimitero Pgliare di Sassa","lat":42.35298,"lon":13.32008},{"id":"1:H01060","name":"SP1 fronte Ex Sercom Pagliare Sassa","lat":42.35285,"lon":13.31619},{"id":"1:H01380","name":"SP1 fronte via B Di Mario Pagliare Sassa","lat":42.3529,"lon":13.31425},{"id":"1:H00970","name":"SP1 fronte scuola media Pagliare Sassa","lat":42.35171,"lon":13.3091},{"id":"1:H00900","name":"Via Duca Abruzzi front scuola Pagl Sassa","lat":42.35202,"lon":13.30673},{"id":"1:H00860","name":"Via Duca Abruzzi lato carabinieri Sassa","lat":42.35237,"lon":13.30161},{"id":"1:H00840","name":"Via Duca Abruzzi fronte via Fonte Sassa","lat":42.35237,"lon":13.29815},{"id":"1:H00820","name":"Via Ponte San Giovanni Sassa lato poste","lat":42.35318,"lon":13.29181},{"id":"1:H01370","name":"Via Ponte San Giovanni n.57 c.da S.Carlo","lat":42.35344,"lon":13.28874},{"id":"1:H00800","name":"Via Ponte San Giovanni fronte civico 80","lat":42.35412,"lon":13.28527},{"id":"1:H00780","name":"SP1 Ponte San Giovanni lato ponte","lat":42.35115,"lon":13.28072},{"id":"1:H00770","name":"SP1 Amiternina fronte via Brecciasecca 1","lat":42.34422,"lon":13.28213},{"id":"1:H00610","name":"Via Brecciasecca fron via Del Rio Brecc.","lat":42.34536,"lon":13.28548},{"id":"1:H00590","name":"Via Brecciasecca fron esteti. Collesassa","lat":42.34685,"lon":13.28833},{"id":"1:H00570","name":"Via Brecciasecca lato chiesa Collesassa","lat":42.34723,"lon":13.29069},{"id":"1:H00550","name":"Via Poggio Santa Maria lato via Caionari","lat":42.3457,"lon":13.29241},{"id":"1:H00540","name":"Via Poggio Santa Maria lato civico 31","lat":42.34465,"lon":13.29326},{"id":"1:H01480","name":"SP Silvaplana via Colle lato Soalco","lat":42.33872,"lon":13.30185},{"id":"1:H00510","name":"SP Silvaplana via Colle lato Valle Ricci","lat":42.33586,"lon":13.30238},{"id":"1:H00490","name":"Silvaplana via Colle lato MAP Poggio S.M","lat":42.33261,"lon":13.30205},{"id":"1:H00470","name":"Silvaplana via Colle fron Nocella Po.S.M","lat":42.33061,"lon":13.29823},{"id":"1:H00450","name":"SP Silvaplana dir. Collemare San Martino","lat":42.32976,"lon":13.3023},{"id":"1:H00440","name":"SP Silvaplana dir. Collemare front n. 18","lat":42.32895,"lon":13.305},{"id":"1:H00420","name":"SP Silvaplana fronte sdrucciolo d. Croce","lat":42.3268,"lon":13.30651},{"id":"1:H00390","name":"Silvaplana piazza Collemare lato fontana","lat":42.32473,"lon":13.30403},{"id":"1:H00370","name":"Silvaplana Collemare lato San Martino","lat":42.32285,"lon":13.30505},{"id":"1:H00350","name":"Silvaplana Collemare fronte civ. 46","lat":42.32196,"lon":13.30635},{"id":"1:H00330","name":"s.p.5 s.andrea uscita","lat":42.3176,"lon":13.31493},{"id":"1:H00310","name":"Via Tartaglione Sant'Andrea Lucoli cv.41","lat":42.31598,"lon":13.31653},{"id":"1:H00290","name":"Via Tartaglione Sant'Andrea Lucoli civ.3","lat":42.314161,"lon":13.31786},{"id":"1:H00295","name":"via Santa Menna Lucoli lato campo sport.","lat":42.312991,"lon":13.31885},{"id":"1:H00270","name":"via Santa Menna Lucoli Mulino civico 13","lat":42.311531,"lon":13.32047},{"id":"1:H00250","name":"Santa Menna Lucoli lat.largo del Mancino","lat":42.310411,"lon":13.3209},{"id":"1:H00230","name":"Via Gatti Francolisco Lucoli lat.fontana","lat":42.308291,"lon":13.32041},{"id":"1:H00210","name":"Santa Croce di Lucoli front via d. vigne","lat":42.304751,"lon":13.31933},{"id":"1:H00190","name":"Santa Croce di Lucoli lato via le croci","lat":42.303251,"lon":13.31783},{"id":"1:H00180","name":"Peschiolo di Lucoli via del querceto","lat":42.297231,"lon":13.32685},{"id":"1:H00160","name":"Via del querceto Peschiolo fr.e pizzeria","lat":42.298021,"lon":13.32726},{"id":"1:H00170","name":"Via Casavecchia Prata Lucoli fronte civ3","lat":42.295561,"lon":13.33058}],"trips":[{"id":"1:4777","tripHeadsign":"Via Casavecchia Prata Lucoli fronte civ3","serviceId":"1:0ANNLUSA2016010120991231","shapeId":"ZZZZ1200051","direction":0,"departureStop":{"stopId":"1:A00002","stopName":"TERMINALBUS STALLO BUS AMA 2","stopIndex":0,"stopCount":76,"scheduledArrival":39000,"scheduledDeparture":39000,"realtimeArrival":39000,"realtimeDeparture":39000,"arrivalDelay":0,"departureDelay":0,"timepoint":true,"realtime":false,"realtimeState":"SCHEDULED","serviceDay":0,"headsign":"Via Casavecchia Prata Lucoli fronte civ3","continuousPickup":-999,"continuousDropOff":-999,"serviceAreaRadius":0},"arrivalStop":{"stopId":"1:H00170","stopName":"Via Casavecchia Prata Lucoli fronte civ3","stopIndex":75,"stopCount":76,"scheduledArrival":42600,"scheduledDeparture":42600,"realtimeArrival":42600,"realtimeDeparture":42600,"arrivalDelay":0,"departureDelay":0,"timepoint":true,"realtime":false,"realtimeState":"SCHEDULED","serviceDay":0,"headsign":"Via Casavecchia Prata Lucoli fronte civ3","continuousPickup":-999,"continuousDropOff":-999,"serviceAreaRadius":0},"tripShortName":"12"},{"id":"1:4778","tripHeadsign":"Via Casavecchia Prata Lucoli fronte civ3","serviceId":"1:0ANNLUSA2016010120991231","shapeId":"ZZZZ1200051","direction":0,"departureStop":{"stopId":"1:A00002","stopName":"TERMINALBUS STALLO BUS AMA 2","stopIndex":0,"stopCount":76,"scheduledArrival":45600,"scheduledDeparture":45600,"realtimeArrival":45600,"realtimeDeparture":45600,"arrivalDelay":0,"departureDelay":0,"timepoint":true,"realtime":false,"realtimeState":"SCHEDULED","serviceDay":0,"headsign":"Via Casavecchia Prata Lucoli fronte civ3","continuousPickup":-999,"continuousDropOff":-999,"serviceAreaRadius":0},"arrivalStop":{"stopId":"1:H00170","stopName":"Via Casavecchia Prata Lucoli fronte civ3","stopIndex":75,"stopCount":76,"scheduledArrival":48900,"scheduledDeparture":48900,"realtimeArrival":48900,"realtimeDeparture":48900,"arrivalDelay":0,"departureDelay":0,"timepoint":true,"realtime":false,"realtimeState":"SCHEDULED","serviceDay":0,"headsign":"Via Casavecchia Prata Lucoli fronte civ3","continuousPickup":-999,"continuousDropOff":-999,"serviceAreaRadius":0},"tripShortName":"12"},{"id":"1:4784","tripHeadsign":"Via Casavecchia Prata Lucoli fronte civ3","serviceId":"1:0ANNLUSA2016010120991231","shapeId":"ZZZZ1200051","direction":0,"departureStop":{"stopId":"1:A00002","stopName":"TERMINALBUS STALLO BUS AMA 2","stopIndex":0,"stopCount":76,"scheduledArrival":69000,"scheduledDeparture":69000,"realtimeArrival":69000,"realtimeDeparture":69000,"arrivalDelay":0,"departureDelay":0,"timepoint":true,"realtime":false,"realtimeState":"SCHEDULED","serviceDay":0,"headsign":"Via Casavecchia Prata Lucoli fronte civ3","continuousPickup":-999,"continuousDropOff":-999,"serviceAreaRadius":0},"arrivalStop":{"stopId":"1:H00170","stopName":"Via Casavecchia Prata Lucoli fronte civ3","stopIndex":75,"stopCount":76,"scheduledArrival":71700,"scheduledDeparture":71700,"realtimeArrival":71700,"realtimeDeparture":71700,"arrivalDelay":0,"departureDelay":0,"timepoint":true,"realtime":false,"realtimeState":"SCHEDULED","serviceDay":0,"headsign":"Via Casavecchia Prata Lucoli fronte civ3","continuousPickup":-999,"continuousDropOff":-999,"serviceAreaRadius":0},"tripShortName":"12"}]},"1:12:0:04":{"id":"1:12:0:04","desc":"12 to Via Casavecchia Prata Lucoli lato civ3 (1:H00175) from TERMINALBUS STALLO BUS AMA 2 (1:A00002)","routeId":"1:12","routeName":"12","trip_route":["12"],"trips_list":[],"busStopStart":"TERMINALBUS STALLO BUS AMA 2","busStopStartId":"1:A00002","busStopEnd":"Via Casavecchia Prata Lucoli lato civ3","busStopEndId":"1:H00175","stops":[{"id":"1:A00002","name":"TERMINALBUS STALLO BUS AMA 2","lat":42.344401,"lon":13.4013},{"id":"1:B00190","name":"Via Della Crocetta - lato edicola","lat":42.346051,"lon":13.4108},{"id":"1:B00170","name":"via Cencioni lato Cimitero","lat":42.351481,"lon":13.41198},{"id":"1:A00660","name":"Viale Antonio Panella lato caserma","lat":42.355181,"lon":13.40742},{"id":"1:A00370","name":"Viale Croce Rossa bivio Via Moscardelli","lat":42.357531,"lon":13.40388},{"id":"1:A00390","name":"Viale Croce Rossa bv. Via Monte Camicia","lat":42.357011,"lon":13.39878},{"id":"1:A00410","name":"Viale Croce Rossa bivio Valle Pretara","lat":42.356691,"lon":13.39506},{"id":"1:A00430","name":"Viale Croce Rossa bivio Via San Sisto","lat":42.357061,"lon":13.39041},{"id":"1:E00640","name":"Via Beato Cesidio Santanza","lat":42.358361,"lon":13.38643},{"id":"1:E00680","name":"Via Beato Cesidio Piazza Italia","lat":42.361151,"lon":13.38693},{"id":"1:E00720","name":"Via R.Paolucci piazza Ayala S.Barbara","lat":42.362561,"lon":13.38541},{"id":"1:E00600","name":"Via Piccinini chiesa","lat":42.362961,"lon":13.38301},{"id":"1:E00630","name":"v.piccinini p.d'armi","lat":42.361301,"lon":13.38057},{"id":"1:D00410","name":"SS17 lato Hotel Amiternum","lat":42.360451,"lon":13.37713},{"id":"1:D00380","name":"SS17 Ovest lato ingresso A24","lat":42.359671,"lon":13.37088},{"id":"1:D00500","name":"SS17 Ovest lato Via dei Medici","lat":42.359441,"lon":13.36949},{"id":"1:D00510","name":"piazzale italtel AQ/2A","lat":42.357861,"lon":13.36463},{"id":"1:D01010","name":"SS17 Ovest Sede Centro Postale","lat":42.360201,"lon":13.35673},{"id":"1:H01140","name":"SS17 Deposito Ama Spa fronte Ama","lat":42.358481,"lon":13.35131},{"id":"1:D00140","name":"Via Campo di Pile Optimes","lat":42.35205,"lon":13.34895},{"id":"1:D00080","name":"Via Saragat fronte IN'S","lat":42.350531,"lon":13.34733},{"id":"1:D00075","name":"Via Saragat fronte BPER","lat":42.351148,"lon":13.344464},{"id":"1:D00065","name":"Via Saragat fronte bar 20","lat":42.352811,"lon":13.33944},{"id":"1:H01420","name":"SS584 fiume Raio lato deposito legname","lat":42.355891,"lon":13.33298},{"id":"1:H01100","name":"SS584 fronte Via della Fontana Genzano","lat":42.35565,"lon":13.32738},{"id":"1:H01080","name":"ss. 584 agip genzano","lat":42.35392,"lon":13.32403},{"id":"1:H01400","name":"SP1 lato cimitero Pgliare di Sassa","lat":42.35298,"lon":13.32008},{"id":"1:H01060","name":"SP1 fronte Ex Sercom Pagliare Sassa","lat":42.35285,"lon":13.31619},{"id":"1:H01380","name":"SP1 fronte via B Di Mario Pagliare Sassa","lat":42.3529,"lon":13.31425},{"id":"1:H00970","name":"SP1 fronte scuola media Pagliare Sassa","lat":42.35171,"lon":13.3091},{"id":"1:H00900","name":"Via Duca Abruzzi front scuola Pagl Sassa","lat":42.35202,"lon":13.30673},{"id":"1:H00860","name":"Via Duca Abruzzi lato carabinieri Sassa","lat":42.35237,"lon":13.30161},{"id":"1:H00840","name":"Via Duca Abruzzi fronte via Fonte Sassa","lat":42.35237,"lon":13.29815},{"id":"1:H00820","name":"Via Ponte San Giovanni Sassa lato poste","lat":42.35318,"lon":13.29181},{"id":"1:H01370","name":"Via Ponte San Giovanni n.57 c.da S.Carlo","lat":42.35344,"lon":13.28874},{"id":"1:H00800","name":"Via Ponte San Giovanni fronte civico 80","lat":42.35412,"lon":13.28527},{"id":"1:H00780","name":"SP1 Ponte San Giovanni lato ponte","lat":42.35115,"lon":13.28072},{"id":"1:H00770","name":"SP1 Amiternina fronte via Brecciasecca 1","lat":42.34422,"lon":13.28213},{"id":"1:H00610","name":"Via Brecciasecca fron via Del Rio Brecc.","lat":42.34536,"lon":13.28548},{"id":"1:H00590","name":"Via Brecciasecca fron esteti. Collesassa","lat":42.34685,"lon":13.28833},{"id":"1:H00570","name":"Via Brecciasecca lato chiesa Collesassa","lat":42.34723,"lon":13.29069},{"id":"1:H00550","name":"Via Poggio Santa Maria lato via Caionari","lat":42.3457,"lon":13.29241},{"id":"1:H00540","name":"Via Poggio Santa Maria lato civico 31","lat":42.34465,"lon":13.29326},{"id":"1:H01480","name":"SP Silvaplana via Colle lato Soalco","lat":42.33872,"lon":13.30185},{"id":"1:H00510","name":"SP Silvaplana via Colle lato Valle Ricci","lat":42.33586,"lon":13.30238},{"id":"1:H00490","name":"Silvaplana via Colle lato MAP Poggio S.M","lat":42.33261,"lon":13.30205},{"id":"1:H00470","name":"Silvaplana via Colle fron Nocella Po.S.M","lat":42.33061,"lon":13.29823},{"id":"1:H00450","name":"SP Silvaplana dir. Collemare San Martino","lat":42.32976,"lon":13.3023},{"id":"1:H00440","name":"SP Silvaplana dir. Collemare front n. 18","lat":42.32895,"lon":13.305},{"id":"1:H00420","name":"SP Silvaplana fronte sdrucciolo d. Croce","lat":42.3268,"lon":13.30651},{"id":"1:H00390","name":"Silvaplana piazza Collemare lato fontana","lat":42.32473,"lon":13.30403},{"id":"1:H00370","name":"Silvaplana Collemare lato San Martino","lat":42.32285,"lon":13.30505},{"id":"1:H00350","name":"Silvaplana Collemare fronte civ. 46","lat":42.32196,"lon":13.30635},{"id":"1:H00330","name":"s.p.5 s.andrea uscita","lat":42.3176,"lon":13.31493},{"id":"1:H00310","name":"Via Tartaglione Sant'Andrea Lucoli cv.41","lat":42.31598,"lon":13.31653},{"id":"1:H00290","name":"Via Tartaglione Sant'Andrea Lucoli civ.3","lat":42.314161,"lon":13.31786},{"id":"1:H00295","name":"via Santa Menna Lucoli lato campo sport.","lat":42.312991,"lon":13.31885},{"id":"1:H00270","name":"via Santa Menna Lucoli Mulino civico 13","lat":42.311531,"lon":13.32047},{"id":"1:H00150","name":"via Casavecchia bv.via ville Prata Lucol","lat":42.302521,"lon":13.3281},{"id":"1:H00175","name":"Via Casavecchia Prata Lucoli lato civ3","lat":42.295571,"lon":13.33051}],"trips":[{"id":"1:4776","tripHeadsign":"Via Casavecchia Prata Lucoli lato civ3","serviceId":"1:0ANNLUSA2016010120991231","shapeId":"ZZZZ1200111","direction":0,"departureStop":{"stopId":"1:A00002","stopName":"TERMINALBUS STALLO BUS AMA 2","stopIndex":0,"stopCount":60,"scheduledArrival":29100,"scheduledDeparture":29100,"realtimeArrival":29100,"realtimeDeparture":29100,"arrivalDelay":0,"departureDelay":0,"timepoint":true,"realtime":false,"realtimeState":"SCHEDULED","serviceDay":0,"headsign":"Via Casavecchia Prata Lucoli lato civ3","continuousPickup":-999,"continuousDropOff":-999,"serviceAreaRadius":0},"arrivalStop":{"stopId":"1:H00175","stopName":"Via Casavecchia Prata Lucoli lato civ3","stopIndex":59,"stopCount":60,"scheduledArrival":32100,"scheduledDeparture":32100,"realtimeArrival":32100,"realtimeDeparture":32100,"arrivalDelay":0,"departureDelay":0,"timepoint":true,"realtime":false,"realtimeState":"SCHEDULED","serviceDay":0,"headsign":"Via Casavecchia Prata Lucoli lato civ3","continuousPickup":-999,"continuousDropOff":-999,"serviceAreaRadius":0},"tripShortName":"12"}]},"1:15:0:08":{"id":"1:15:0:08","desc":"15 to Via Vallicella Capolinea Arischia Ater (1:I00670) from TERMINALBUS STALLO BUS AMA 2 (1:A00002) like trip 1_4421","routeId":"1:15","routeName":"15","trip_route":["15"],"trips_list":[],"busStopStart":"TERMINALBUS STALLO BUS AMA 2","busStopStartId":"1:A00002","busStopEnd":"Via Vallicella Capolinea Arischia Ater","busStopEndId":"1:I00670","stops":[{"id":"1:A00002","name":"TERMINALBUS STALLO BUS AMA 2","lat":42.344401,"lon":13.4013},{"id":"1:B00190","name":"Via Della Crocetta - lato edicola","lat":42.346051,"lon":13.4108},{"id":"1:B00170","name":"via Cencioni lato Cimitero","lat":42.351481,"lon":13.41198},{"id":"1:A00660","name":"Viale Antonio Panella lato caserma","lat":42.355181,"lon":13.40742},